{
"type": "FeatureCollection",
"name": "mines_ca",
"features": [
{ "type": "Feature", "properties": { "FEATURE_ID": 217938, "FEATURE_NAME": "Abbott Mine", "FEATURE_CLASS": "Mine", "STATE_ALPHA": "CA", "COUNTY_NAME": "Lake", "PRIM_LAT_DEC": 39.0223948, "PRIM_LONG_DEC": -122.4452551, "ELEV_IN_FT": 2054 }, "geometry": { "type": "Point", "coordinates": [ -122.4452551, 39.0223948 ] } },
{ "type": "Feature", "properties": { "FEATURE_ID": 217974, "FEATURE_NAME": "Adams Pit", "FEATURE_CLASS": "Mine", "STATE_ALPHA": "CA", "COUNTY_NAME": "Placer", "PRIM_LAT_DEC": 39.0232338, "PRIM_LONG_DEC": -120.7165957, "ELEV_IN_FT": 1594 }, "geometry": { "type": "Point", "coordinates": [ -120.7165957, 39.0232338 ] } },
{ "type": "Feature", "properties": { "FEATURE_ID": 217983, "FEATURE_NAME": "Adit Number One-One Hundred Twenty", "FEATURE_CLASS": "Mine", "STATE_ALPHA": "CA", "COUNTY_NAME": "Sonoma", "PRIM_LAT_DEC": 38.8062943, "PRIM_LONG_DEC": -122.8427721, "ELEV_IN_FT": 1407 }, "geometry": { "type": "Point", "coordinates": [ -122.8427721, 38.8062943 ] } },
{ "type": "Feature", "properties": { "FEATURE_ID": 217995, "FEATURE_NAME": "Adobe Mine", "FEATURE_CLASS": "Mine", "STATE_ALPHA": "CA", "COUNTY_NAME": "Stanislaus", "PRIM_LAT_DEC": 37.4032681, "PRIM_LONG_DEC": -121.3727158, "ELEV_IN_FT": 1736 }, "geometry": { "type": "Point", "coordinates": [ -121.3727158, 37.4032681 ] } },
{ "type": "Feature", "properties": { "FEATURE_ID": 218000, "FEATURE_NAME": "Advance Mine", "FEATURE_CLASS": "Mine", "STATE_ALPHA": "CA", "COUNTY_NAME": "Siskiyou", "PRIM_LAT_DEC": 41.3370832, "PRIM_LONG_DEC": -123.0222595, "ELEV_IN_FT": 5049 }, "geometry": { "type": "Point", "coordinates": [ -123.0222595, 41.3370832 ] } },
{ "type": "Feature", "properties": { "FEATURE_ID": 218002, "FEATURE_NAME": "Aeroplane Mine", "FEATURE_CLASS": "Mine", "STATE_ALPHA": "CA", "COUNTY_NAME": "Inyo", "PRIM_LAT_DEC": 37.3438194, "PRIM_LONG_DEC": -118.5265041, "ELEV_IN_FT": 5863 }, "geometry": { "type": "Point", "coordinates": [ -118.5265041, 37.3438194 ] } },
{ "type": "Feature", "properties": { "FEATURE_ID": 218003, "FEATURE_NAME": "Aetna Extension Mine", "FEATURE_CLASS": "Mine", "STATE_ALPHA": "CA", "COUNTY_NAME": "Napa", "PRIM_LAT_DEC": 38.6660158, "PRIM_LONG_DEC": -122.5105363, "ELEV_IN_FT": 1417 }, "geometry": { "type": "Point", "coordinates": [ -122.5105363, 38.6660158 ] } },
{ "type": "Feature", "properties": { "FEATURE_ID": 218043, "FEATURE_NAME": "Alabama Mine", "FEATURE_CLASS": "Mine", "STATE_ALPHA": "CA", "COUNTY_NAME": "Placer", "PRIM_LAT_DEC": 38.8446218, "PRIM_LONG_DEC": -121.1574478, "ELEV_IN_FT": 564 }, "geometry": { "type": "Point", "coordinates": [ -121.1574478, 38.8446218 ] } },
{ "type": "Feature", "properties": { "FEATURE_ID": 218051, "FEATURE_NAME": "Alameda Tunnel", "FEATURE_CLASS": "Mine", "STATE_ALPHA": "CA", "COUNTY_NAME": "Placer", "PRIM_LAT_DEC": 39.1549009, "PRIM_LONG_DEC": -120.6849314, "ELEV_IN_FT": 4213 }, "geometry": { "type": "Point", "coordinates": [ -120.6849314, 39.1549009 ] } },
{ "type": "Feature", "properties": { "FEATURE_ID": 218162, "FEATURE_NAME": "Alpha Diggings", "FEATURE_CLASS": "Mine", "STATE_ALPHA": "CA", "COUNTY_NAME": "Nevada", "PRIM_LAT_DEC": 39.335454, "PRIM_LONG_DEC": -120.7871621, "ELEV_IN_FT": 3950 }, "geometry": { "type": "Point", "coordinates": [ -120.7871621, 39.335454 ] } },
{ "type": "Feature", "properties": { "FEATURE_ID": 218192, "FEATURE_NAME": "Alto Mine", "FEATURE_CLASS": "Mine", "STATE_ALPHA": "CA", "COUNTY_NAME": "Calaveras", "PRIM_LAT_DEC": 37.8946486, "PRIM_LONG_DEC": -120.6065916, "ELEV_IN_FT": 604 }, "geometry": { "type": "Point", "coordinates": [ -120.6065916, 37.8946486 ] } },
{ "type": "Feature", "properties": { "FEATURE_ID": 218210, "FEATURE_NAME": "Amador Columbia Mine", "FEATURE_CLASS": "Mine", "STATE_ALPHA": "CA", "COUNTY_NAME": "Calaveras", "PRIM_LAT_DEC": 38.4143557, "PRIM_LONG_DEC": -120.5679829, "ELEV_IN_FT": 2028 }, "geometry": { "type": "Point", "coordinates": [ -120.5679829, 38.4143557 ] } },
{ "type": "Feature", "properties": { "FEATURE_ID": 218213, "FEATURE_NAME": "Amador Mine", "FEATURE_CLASS": "Mine", "STATE_ALPHA": "CA", "COUNTY_NAME": "Amador", "PRIM_LAT_DEC": 38.3321363, "PRIM_LONG_DEC": -120.754379, "ELEV_IN_FT": 1260 }, "geometry": { "type": "Point", "coordinates": [ -120.754379, 38.3321363 ] } },
{ "type": "Feature", "properties": { "FEATURE_ID": 218214, "FEATURE_NAME": "Amador Queen Mine", "FEATURE_CLASS": "Mine", "STATE_ALPHA": "CA", "COUNTY_NAME": "Amador", "PRIM_LAT_DEC": 38.3246366, "PRIM_LONG_DEC": -120.7541013, "ELEV_IN_FT": 938 }, "geometry": { "type": "Point", "coordinates": [ -120.7541013, 38.3246366 ] } },
{ "type": "Feature", "properties": { "FEATURE_ID": 218220, "FEATURE_NAME": "Ambrose Mine", "FEATURE_CLASS": "Mine", "STATE_ALPHA": "CA", "COUNTY_NAME": "San Benito", "PRIM_LAT_DEC": 36.9530044, "PRIM_LONG_DEC": -121.237982, "ELEV_IN_FT": 2067 }, "geometry": { "type": "Point", "coordinates": [ -121.237982, 36.9530044 ] } },
{ "type": "Feature", "properties": { "FEATURE_ID": 218227, "FEATURE_NAME": "America Mine", "FEATURE_CLASS": "Mine", "STATE_ALPHA": "CA", "COUNTY_NAME": "Santa Clara", "PRIM_LAT_DEC": 37.1802233, "PRIM_LONG_DEC": -121.8549535, "ELEV_IN_FT": 1453 }, "geometry": { "type": "Point", "coordinates": [ -121.8549535, 37.1802233 ] } },
{ "type": "Feature", "properties": { "FEATURE_ID": 218231, "FEATURE_NAME": "American Eagle Mine", "FEATURE_CLASS": "Mine", "STATE_ALPHA": "CA", "COUNTY_NAME": "Placer", "PRIM_LAT_DEC": 39.1843447, "PRIM_LONG_DEC": -120.7143776, "ELEV_IN_FT": 2267 }, "geometry": { "type": "Point", "coordinates": [ -120.7143776, 39.1843447 ] } },
{ "type": "Feature", "properties": { "FEATURE_ID": 218232, "FEATURE_NAME": "American Exchange Mine", "FEATURE_CLASS": "Mine", "STATE_ALPHA": "CA", "COUNTY_NAME": "Sierra", "PRIM_LAT_DEC": 39.6093427, "PRIM_LONG_DEC": -120.6899409, "ELEV_IN_FT": 6630 }, "geometry": { "type": "Point", "coordinates": [ -120.6899409, 39.6093427 ] } },
{ "type": "Feature", "properties": { "FEATURE_ID": 218263, "FEATURE_NAME": "Anderson Mine", "FEATURE_CLASS": "Mine", "STATE_ALPHA": "CA", "COUNTY_NAME": "Placer", "PRIM_LAT_DEC": 39.0287903, "PRIM_LONG_DEC": -120.6688167, "ELEV_IN_FT": 3547 }, "geometry": { "type": "Point", "coordinates": [ -120.6688167, 39.0287903 ] } },
{ "type": "Feature", "properties": { "FEATURE_ID": 218264, "FEATURE_NAME": "Anderson Mine", "FEATURE_CLASS": "Mine", "STATE_ALPHA": "CA", "COUNTY_NAME": "Nevada", "PRIM_LAT_DEC": 39.3915694, "PRIM_LONG_DEC": -120.4924298, "ELEV_IN_FT": 6883 }, "geometry": { "type": "Point", "coordinates": [ -120.4924298, 39.3915694 ] } },
{ "type": "Feature", "properties": { "FEATURE_ID": 218268, "FEATURE_NAME": "Anderson Pit", "FEATURE_CLASS": "Mine", "STATE_ALPHA": "CA", "COUNTY_NAME": "Placer", "PRIM_LAT_DEC": 39.0768448, "PRIM_LONG_DEC": -120.7165971, "ELEV_IN_FT": 3284 }, "geometry": { "type": "Point", "coordinates": [ -120.7165971, 39.0768448 ] } },
{ "type": "Feature", "properties": { "FEATURE_ID": 218289, "FEATURE_NAME": "Anna Sue Mine", "FEATURE_CLASS": "Mine", "STATE_ALPHA": "CA", "COUNTY_NAME": "Placer", "PRIM_LAT_DEC": 39.0429562, "PRIM_LONG_DEC": -120.7071514, "ELEV_IN_FT": 1759 }, "geometry": { "type": "Point", "coordinates": [ -120.7071514, 39.0429562 ] } },
{ "type": "Feature", "properties": { "FEATURE_ID": 218290, "FEATURE_NAME": "Annie Johnson Mine", "FEATURE_CLASS": "Mine", "STATE_ALPHA": "CA", "COUNTY_NAME": "Siskiyou", "PRIM_LAT_DEC": 41.2620821, "PRIM_LONG_DEC": -123.10143, "ELEV_IN_FT": 4347 }, "geometry": { "type": "Point", "coordinates": [ -123.10143, 41.2620821 ] } },
{ "type": "Feature", "properties": { "FEATURE_ID": 218328, "FEATURE_NAME": "Aqua Caliente Mine", "FEATURE_CLASS": "Mine", "STATE_ALPHA": "CA", "COUNTY_NAME": "Tuolumne", "PRIM_LAT_DEC": 37.9638131, "PRIM_LONG_DEC": -120.1762984, "ELEV_IN_FT": 3258 }, "geometry": { "type": "Point", "coordinates": [ -120.1762984, 37.9638131 ] } },
{ "type": "Feature", "properties": { "FEATURE_ID": 218359, "FEATURE_NAME": "Argonaut Mine", "FEATURE_CLASS": "Mine", "STATE_ALPHA": "CA", "COUNTY_NAME": "Amador", "PRIM_LAT_DEC": 38.3629686, "PRIM_LONG_DEC": -120.7863243, "ELEV_IN_FT": 1522 }, "geometry": { "type": "Point", "coordinates": [ -120.7863243, 38.3629686 ] } },
{ "type": "Feature", "properties": { "FEATURE_ID": 218496, "FEATURE_NAME": "Bachelor Pit", "FEATURE_CLASS": "Mine", "STATE_ALPHA": "CA", "COUNTY_NAME": "Placer", "PRIM_LAT_DEC": 39.0782337, "PRIM_LONG_DEC": -120.7157637, "ELEV_IN_FT": 3327 }, "geometry": { "type": "Point", "coordinates": [ -120.7157637, 39.0782337 ] } },
{ "type": "Feature", "properties": { "FEATURE_ID": 218514, "FEATURE_NAME": "Badger Hill Mine", "FEATURE_CLASS": "Mine", "STATE_ALPHA": "CA", "COUNTY_NAME": "El Dorado", "PRIM_LAT_DEC": 38.7674031, "PRIM_LONG_DEC": -120.6438177, "ELEV_IN_FT": 3018 }, "geometry": { "type": "Point", "coordinates": [ -120.6438177, 38.7674031 ] } },
{ "type": "Feature", "properties": { "FEATURE_ID": 218549, "FEATURE_NAME": "Baker Mine", "FEATURE_CLASS": "Mine", "STATE_ALPHA": "CA", "COUNTY_NAME": "Lake", "PRIM_LAT_DEC": 38.8876767, "PRIM_LONG_DEC": -122.5297023, "ELEV_IN_FT": 1414 }, "geometry": { "type": "Point", "coordinates": [ -122.5297023, 38.8876767 ] } },
{ "type": "Feature", "properties": { "FEATURE_ID": 218550, "FEATURE_NAME": "Baker Mine", "FEATURE_CLASS": "Mine", "STATE_ALPHA": "CA", "COUNTY_NAME": "Shasta", "PRIM_LAT_DEC": 40.7770926, "PRIM_LONG_DEC": -122.5347379, "ELEV_IN_FT": 2858 }, "geometry": { "type": "Point", "coordinates": [ -122.5347379, 40.7770926 ] } },
{ "type": "Feature", "properties": { "FEATURE_ID": 218560, "FEATURE_NAME": "Balaklaia Mine", "FEATURE_CLASS": "Mine", "STATE_ALPHA": "CA", "COUNTY_NAME": "Shasta", "PRIM_LAT_DEC": 40.7240377, "PRIM_LONG_DEC": -122.5014031, "ELEV_IN_FT": 2487 }, "geometry": { "type": "Point", "coordinates": [ -122.5014031, 40.7240377 ] } },
{ "type": "Feature", "properties": { "FEATURE_ID": 218561, "FEATURE_NAME": "Balaklaia Mine", "FEATURE_CLASS": "Mine", "STATE_ALPHA": "CA", "COUNTY_NAME": "Shasta", "PRIM_LAT_DEC": 40.7248711, "PRIM_LONG_DEC": -122.495014, "ELEV_IN_FT": 2651 }, "geometry": { "type": "Point", "coordinates": [ -122.495014, 40.7248711 ] } },
{ "type": "Feature", "properties": { "FEATURE_ID": 218567, "FEATURE_NAME": "Bald Eagle Mine", "FEATURE_CLASS": "Mine", "STATE_ALPHA": "CA", "COUNTY_NAME": "Stanislaus", "PRIM_LAT_DEC": 37.1902174, "PRIM_LONG_DEC": -121.223263, "ELEV_IN_FT": 1115 }, "geometry": { "type": "Point", "coordinates": [ -121.223263, 37.1902174 ] } },
{ "type": "Feature", "properties": { "FEATURE_ID": 218648, "FEATURE_NAME": "Banner Mine", "FEATURE_CLASS": "Mine", "STATE_ALPHA": "CA", "COUNTY_NAME": "Sierra", "PRIM_LAT_DEC": 39.5215654, "PRIM_LONG_DEC": -120.7107739, "ELEV_IN_FT": 5817 }, "geometry": { "type": "Point", "coordinates": [ -120.7107739, 39.5215654 ] } },
{ "type": "Feature", "properties": { "FEATURE_ID": 218649, "FEATURE_NAME": "Banner Mine", "FEATURE_CLASS": "Mine", "STATE_ALPHA": "CA", "COUNTY_NAME": "Butte", "PRIM_LAT_DEC": 39.5512749, "PRIM_LONG_DEC": -121.5183025, "ELEV_IN_FT": 558 }, "geometry": { "type": "Point", "coordinates": [ -121.5183025, 39.5512749 ] } },
{ "type": "Feature", "properties": { "FEATURE_ID": 218650, "FEATURE_NAME": "Banner Mountain Mine", "FEATURE_CLASS": "Mine", "STATE_ALPHA": "CA", "COUNTY_NAME": "Nevada", "PRIM_LAT_DEC": 39.2365608, "PRIM_LONG_DEC": -121.0127255, "ELEV_IN_FT": 2986 }, "geometry": { "type": "Point", "coordinates": [ -121.0127255, 39.2365608 ] } },
{ "type": "Feature", "properties": { "FEATURE_ID": 218705, "FEATURE_NAME": "Barry Creek Mine", "FEATURE_CLASS": "Mine", "STATE_ALPHA": "CA", "COUNTY_NAME": "Trinity", "PRIM_LAT_DEC": 40.1973707, "PRIM_LONG_DEC": -123.2683554, "ELEV_IN_FT": 3041 }, "geometry": { "type": "Point", "coordinates": [ -123.2683554, 40.1973707 ] } },
{ "type": "Feature", "properties": { "FEATURE_ID": 218720, "FEATURE_NAME": "Basin Mine", "FEATURE_CLASS": "Mine", "STATE_ALPHA": "CA", "COUNTY_NAME": "Placer", "PRIM_LAT_DEC": 39.0932347, "PRIM_LONG_DEC": -120.6596513, "ELEV_IN_FT": 3711 }, "geometry": { "type": "Point", "coordinates": [ -120.6596513, 39.0932347 ] } },
{ "type": "Feature", "properties": { "FEATURE_ID": 218743, "FEATURE_NAME": "Bauer Mine", "FEATURE_CLASS": "Mine", "STATE_ALPHA": "CA", "COUNTY_NAME": "Placer", "PRIM_LAT_DEC": 39.0429531, "PRIM_LONG_DEC": -120.9213287, "ELEV_IN_FT": 1440 }, "geometry": { "type": "Point", "coordinates": [ -120.9213287, 39.0429531 ] } },
{ "type": "Feature", "properties": { "FEATURE_ID": 218911, "FEATURE_NAME": "Bear Wallow Tunnel", "FEATURE_CLASS": "Mine", "STATE_ALPHA": "CA", "COUNTY_NAME": "Placer", "PRIM_LAT_DEC": 39.1010125, "PRIM_LONG_DEC": -120.6621516, "ELEV_IN_FT": 3924 }, "geometry": { "type": "Point", "coordinates": [ -120.6621516, 39.1010125 ] } },
{ "type": "Feature", "properties": { "FEATURE_ID": 218913, "FEATURE_NAME": "Beardsley Mine", "FEATURE_CLASS": "Mine", "STATE_ALPHA": "CA", "COUNTY_NAME": "Plumas", "PRIM_LAT_DEC": 40.1160051, "PRIM_LONG_DEC": -120.7116163, "ELEV_IN_FT": 5833 }, "geometry": { "type": "Point", "coordinates": [ -120.7116163, 40.1160051 ] } },
{ "type": "Feature", "properties": { "FEATURE_ID": 218956, "FEATURE_NAME": "Bedrock Mine", "FEATURE_CLASS": "Mine", "STATE_ALPHA": "CA", "COUNTY_NAME": "El Dorado", "PRIM_LAT_DEC": 38.9790669, "PRIM_LONG_DEC": -120.7427071, "ELEV_IN_FT": 3130 }, "geometry": { "type": "Point", "coordinates": [ -120.7427071, 38.9790669 ] } },
{ "type": "Feature", "properties": { "FEATURE_ID": 218969, "FEATURE_NAME": "Beehive Mine", "FEATURE_CLASS": "Mine", "STATE_ALPHA": "CA", "COUNTY_NAME": "Placer", "PRIM_LAT_DEC": 39.0471221, "PRIM_LONG_DEC": -120.7443748, "ELEV_IN_FT": 3694 }, "geometry": { "type": "Point", "coordinates": [ -120.7443748, 39.0471221 ] } },
{ "type": "Feature", "properties": { "FEATURE_ID": 218977, "FEATURE_NAME": "Belden Mine", "FEATURE_CLASS": "Mine", "STATE_ALPHA": "CA", "COUNTY_NAME": "Amador", "PRIM_LAT_DEC": 38.4354662, "PRIM_LONG_DEC": -120.5204811, "ELEV_IN_FT": 2930 }, "geometry": { "type": "Point", "coordinates": [ -120.5204811, 38.4354662 ] } },
{ "type": "Feature", "properties": { "FEATURE_ID": 218986, "FEATURE_NAME": "Bell Mine", "FEATURE_CLASS": "Mine", "STATE_ALPHA": "CA", "COUNTY_NAME": "Lake", "PRIM_LAT_DEC": 38.956565, "PRIM_LONG_DEC": -122.7583234, "ELEV_IN_FT": 2231 }, "geometry": { "type": "Point", "coordinates": [ -122.7583234, 38.956565 ] } },
{ "type": "Feature", "properties": { "FEATURE_ID": 218996, "FEATURE_NAME": "Bell Weather Mine", "FEATURE_CLASS": "Mine", "STATE_ALPHA": "CA", "COUNTY_NAME": "Amador", "PRIM_LAT_DEC": 38.3610241, "PRIM_LONG_DEC": -120.7741017, "ELEV_IN_FT": 1394 }, "geometry": { "type": "Point", "coordinates": [ -120.7741017, 38.3610241 ] } },
{ "type": "Feature", "properties": { "FEATURE_ID": 218997, "FEATURE_NAME": "Bella Oak Mine", "FEATURE_CLASS": "Mine", "STATE_ALPHA": "CA", "COUNTY_NAME": "Napa", "PRIM_LAT_DEC": 38.4399105, "PRIM_LONG_DEC": -122.4299792, "ELEV_IN_FT": 374 }, "geometry": { "type": "Point", "coordinates": [ -122.4299792, 38.4399105 ] } },
{ "type": "Feature", "properties": { "FEATURE_ID": 219015, "FEATURE_NAME": "Belmont Mine", "FEATURE_CLASS": "Mine", "STATE_ALPHA": "CA", "COUNTY_NAME": "Inyo", "PRIM_LAT_DEC": 36.5327136, "PRIM_LONG_DEC": -117.766743, "ELEV_IN_FT": 7805 }, "geometry": { "type": "Point", "coordinates": [ -117.766743, 36.5327136 ] } },
{ "type": "Feature", "properties": { "FEATURE_ID": 219056, "FEATURE_NAME": "Benson Mine", "FEATURE_CLASS": "Mine", "STATE_ALPHA": "CA", "COUNTY_NAME": "Shasta", "PRIM_LAT_DEC": 40.6395939, "PRIM_LONG_DEC": -122.4997356, "ELEV_IN_FT": 1138 }, "geometry": { "type": "Point", "coordinates": [ -122.4997356, 40.6395939 ] } },
{ "type": "Feature", "properties": { "FEATURE_ID": 219070, "FEATURE_NAME": "Bernal Mine", "FEATURE_CLASS": "Mine", "STATE_ALPHA": "CA", "COUNTY_NAME": "Santa Clara", "PRIM_LAT_DEC": 37.2199444, "PRIM_LONG_DEC": -121.7930063, "ELEV_IN_FT": 512 }, "geometry": { "type": "Point", "coordinates": [ -121.7930063, 37.2199444 ] } },
{ "type": "Feature", "properties": { "FEATURE_ID": 219153, "FEATURE_NAME": "Big Canyon Mine", "FEATURE_CLASS": "Mine", "STATE_ALPHA": "CA", "COUNTY_NAME": "El Dorado", "PRIM_LAT_DEC": 38.6107388, "PRIM_LONG_DEC": -120.9057723, "ELEV_IN_FT": 866 }, "geometry": { "type": "Point", "coordinates": [ -120.9057723, 38.6107388 ] } },
{ "type": "Feature", "properties": { "FEATURE_ID": 219160, "FEATURE_NAME": "Big Chief Mine", "FEATURE_CLASS": "Mine", "STATE_ALPHA": "CA", "COUNTY_NAME": "Lake", "PRIM_LAT_DEC": 38.7707387, "PRIM_LONG_DEC": -122.7041559, "ELEV_IN_FT": 1919 }, "geometry": { "type": "Point", "coordinates": [ -122.7041559, 38.7707387 ] } },
{ "type": "Feature", "properties": { "FEATURE_ID": 219161, "FEATURE_NAME": "Big Chief Mine", "FEATURE_CLASS": "Mine", "STATE_ALPHA": "CA", "COUNTY_NAME": "Placer", "PRIM_LAT_DEC": 39.0501795, "PRIM_LONG_DEC": -120.6490944, "ELEV_IN_FT": 3796 }, "geometry": { "type": "Point", "coordinates": [ -120.6490944, 39.0501795 ] } },
{ "type": "Feature", "properties": { "FEATURE_ID": 219162, "FEATURE_NAME": "Big Cliff Mine", "FEATURE_CLASS": "Mine", "STATE_ALPHA": "CA", "COUNTY_NAME": "Siskiyou", "PRIM_LAT_DEC": 41.2959723, "PRIM_LONG_DEC": -123.0367048, "ELEV_IN_FT": 5348 }, "geometry": { "type": "Point", "coordinates": [ -123.0367048, 41.2959723 ] } },
{ "type": "Feature", "properties": { "FEATURE_ID": 219203, "FEATURE_NAME": "Big Injun Mine", "FEATURE_CLASS": "Mine", "STATE_ALPHA": "CA", "COUNTY_NAME": "Lake", "PRIM_LAT_DEC": 38.7626836, "PRIM_LONG_DEC": -122.7111006, "ELEV_IN_FT": 2444 }, "geometry": { "type": "Point", "coordinates": [ -122.7111006, 38.7626836 ] } },
{ "type": "Feature", "properties": { "FEATURE_ID": 219252, "FEATURE_NAME": "Big Seven Mine", "FEATURE_CLASS": "Mine", "STATE_ALPHA": "CA", "COUNTY_NAME": "Calaveras", "PRIM_LAT_DEC": 38.0038131, "PRIM_LONG_DEC": -120.634927, "ELEV_IN_FT": 1352 }, "geometry": { "type": "Point", "coordinates": [ -120.634927, 38.0038131 ] } },
{ "type": "Feature", "properties": { "FEATURE_ID": 219254, "FEATURE_NAME": "Big Silver Mine", "FEATURE_CLASS": "Mine", "STATE_ALPHA": "CA", "COUNTY_NAME": "Inyo", "PRIM_LAT_DEC": 36.6724344, "PRIM_LONG_DEC": -117.8320235, "ELEV_IN_FT": 1670 }, "geometry": { "type": "Point", "coordinates": [ -117.8320235, 36.6724344 ] } },
{ "type": "Feature", "properties": { "FEATURE_ID": 219286, "FEATURE_NAME": "Bighorn Mine", "FEATURE_CLASS": "Mine", "STATE_ALPHA": "CA", "COUNTY_NAME": "Inyo", "PRIM_LAT_DEC": 36.6866001, "PRIM_LONG_DEC": -117.9006378, "ELEV_IN_FT": 6929 }, "geometry": { "type": "Point", "coordinates": [ -117.9006378, 36.6866001 ] } },
{ "type": "Feature", "properties": { "FEATURE_ID": 219338, "FEATURE_NAME": "Black Bear Mine", "FEATURE_CLASS": "Mine", "STATE_ALPHA": "CA", "COUNTY_NAME": "Siskiyou", "PRIM_LAT_DEC": 41.2584696, "PRIM_LONG_DEC": -123.1533768, "ELEV_IN_FT": 3812 }, "geometry": { "type": "Point", "coordinates": [ -123.1533768, 41.2584696 ] } },
{ "type": "Feature", "properties": { "FEATURE_ID": 219339, "FEATURE_NAME": "Black Bear Mine", "FEATURE_CLASS": "Mine", "STATE_ALPHA": "CA", "COUNTY_NAME": "Nevada", "PRIM_LAT_DEC": 39.2443379, "PRIM_LONG_DEC": -121.1496762, "ELEV_IN_FT": 1581 }, "geometry": { "type": "Point", "coordinates": [ -121.1496762, 39.2443379 ] } },
{ "type": "Feature", "properties": { "FEATURE_ID": 219354, "FEATURE_NAME": "Black Diamond Mine", "FEATURE_CLASS": "Mine", "STATE_ALPHA": "CA", "COUNTY_NAME": "Butte", "PRIM_LAT_DEC": 39.8957163, "PRIM_LONG_DEC": -121.6169191, "ELEV_IN_FT": 2595 }, "geometry": { "type": "Point", "coordinates": [ -121.6169191, 39.8957163 ] } },
{ "type": "Feature", "properties": { "FEATURE_ID": 219387, "FEATURE_NAME": "Black Oak Mine", "FEATURE_CLASS": "Mine", "STATE_ALPHA": "CA", "COUNTY_NAME": "Tuolumne", "PRIM_LAT_DEC": 37.9774246, "PRIM_LONG_DEC": -120.2760232, "ELEV_IN_FT": 2769 }, "geometry": { "type": "Point", "coordinates": [ -120.2760232, 37.9774246 ] } },
{ "type": "Feature", "properties": { "FEATURE_ID": 219388, "FEATURE_NAME": "Black Oak Mine", "FEATURE_CLASS": "Mine", "STATE_ALPHA": "CA", "COUNTY_NAME": "Placer", "PRIM_LAT_DEC": 39.0165641, "PRIM_LONG_DEC": -120.9438295, "ELEV_IN_FT": 1949 }, "geometry": { "type": "Point", "coordinates": [ -120.9438295, 39.0165641 ] } },
{ "type": "Feature", "properties": { "FEATURE_ID": 219399, "FEATURE_NAME": "Black Prince Mine", "FEATURE_CLASS": "Mine", "STATE_ALPHA": "CA", "COUNTY_NAME": "Amador", "PRIM_LAT_DEC": 38.4276887, "PRIM_LONG_DEC": -120.526037, "ELEV_IN_FT": 2785 }, "geometry": { "type": "Point", "coordinates": [ -120.526037, 38.4276887 ] } },
{ "type": "Feature", "properties": { "FEATURE_ID": 219410, "FEATURE_NAME": "Black Tom Mine", "FEATURE_CLASS": "Mine", "STATE_ALPHA": "CA", "COUNTY_NAME": "Shasta", "PRIM_LAT_DEC": 40.7265357, "PRIM_LONG_DEC": -122.6880752, "ELEV_IN_FT": 2536 }, "geometry": { "type": "Point", "coordinates": [ -122.6880752, 40.7265357 ] } },
{ "type": "Feature", "properties": { "FEATURE_ID": 219411, "FEATURE_NAME": "Black Warrior Mine", "FEATURE_CLASS": "Mine", "STATE_ALPHA": "CA", "COUNTY_NAME": "Inyo", "PRIM_LAT_DEC": 36.6357662, "PRIM_LONG_DEC": -117.9831413, "ELEV_IN_FT": 4806 }, "geometry": { "type": "Point", "coordinates": [ -117.9831413, 36.6357662 ] } },
{ "type": "Feature", "properties": { "FEATURE_ID": 219420, "FEATURE_NAME": "Blackhawk Mine", "FEATURE_CLASS": "Mine", "STATE_ALPHA": "CA", "COUNTY_NAME": "Placer", "PRIM_LAT_DEC": 39.1804557, "PRIM_LONG_DEC": -120.7304891, "ELEV_IN_FT": 2152 }, "geometry": { "type": "Point", "coordinates": [ -120.7304891, 39.1804557 ] } },
{ "type": "Feature", "properties": { "FEATURE_ID": 219434, "FEATURE_NAME": "Blake Mine", "FEATURE_CLASS": "Mine", "STATE_ALPHA": "CA", "COUNTY_NAME": "Inyo", "PRIM_LAT_DEC": 37.0879873, "PRIM_LONG_DEC": -118.1756523, "ELEV_IN_FT": 6968 }, "geometry": { "type": "Point", "coordinates": [ -118.1756523, 37.0879873 ] } },
{ "type": "Feature", "properties": { "FEATURE_ID": 219469, "FEATURE_NAME": "Bloomingdale Mine", "FEATURE_CLASS": "Mine", "STATE_ALPHA": "CA", "COUNTY_NAME": "Butte", "PRIM_LAT_DEC": 39.5984966, "PRIM_LONG_DEC": -121.5291365, "ELEV_IN_FT": 1276 }, "geometry": { "type": "Point", "coordinates": [ -121.5291365, 39.5984966 ] } },
{ "type": "Feature", "properties": { "FEATURE_ID": 219488, "FEATURE_NAME": "Blue Eagle Mine", "FEATURE_CLASS": "Mine", "STATE_ALPHA": "CA", "COUNTY_NAME": "Calaveras", "PRIM_LAT_DEC": 38.1854744, "PRIM_LONG_DEC": -120.5588154, "ELEV_IN_FT": 1972 }, "geometry": { "type": "Point", "coordinates": [ -120.5588154, 38.1854744 ] } },
{ "type": "Feature", "properties": { "FEATURE_ID": 219489, "FEATURE_NAME": "Blue Gouge Mine", "FEATURE_CLASS": "Mine", "STATE_ALPHA": "CA", "COUNTY_NAME": "El Dorado", "PRIM_LAT_DEC": 38.7096266, "PRIM_LONG_DEC": -120.5382586, "ELEV_IN_FT": 3848 }, "geometry": { "type": "Point", "coordinates": [ -120.5382586, 38.7096266 ] } },
{ "type": "Feature", "properties": { "FEATURE_ID": 219498, "FEATURE_NAME": "Blue Jay Mine", "FEATURE_CLASS": "Mine", "STATE_ALPHA": "CA", "COUNTY_NAME": "Calaveras", "PRIM_LAT_DEC": 38.2821382, "PRIM_LONG_DEC": -120.6654871, "ELEV_IN_FT": 1161 }, "geometry": { "type": "Point", "coordinates": [ -120.6654871, 38.2821382 ] } },
{ "type": "Feature", "properties": { "FEATURE_ID": 219502, "FEATURE_NAME": "Blue Lead Mine", "FEATURE_CLASS": "Mine", "STATE_ALPHA": "CA", "COUNTY_NAME": "Nevada", "PRIM_LAT_DEC": 39.3585078, "PRIM_LONG_DEC": -120.8532768, "ELEV_IN_FT": 3727 }, "geometry": { "type": "Point", "coordinates": [ -120.8532768, 39.3585078 ] } },
{ "type": "Feature", "properties": { "FEATURE_ID": 219503, "FEATURE_NAME": "Blue Lead Mine", "FEATURE_CLASS": "Mine", "STATE_ALPHA": "CA", "COUNTY_NAME": "Butte", "PRIM_LAT_DEC": 39.4068329, "PRIM_LONG_DEC": -121.4449659, "ELEV_IN_FT": 404 }, "geometry": { "type": "Point", "coordinates": [ -121.4449659, 39.4068329 ] } },
{ "type": "Feature", "properties": { "FEATURE_ID": 219504, "FEATURE_NAME": "Blue Monday Mine", "FEATURE_CLASS": "Mine", "STATE_ALPHA": "CA", "COUNTY_NAME": "Napa", "PRIM_LAT_DEC": 38.7304588, "PRIM_LONG_DEC": -122.3583115, "ELEV_IN_FT": 1660 }, "geometry": { "type": "Point", "coordinates": [ -122.3583115, 38.7304588 ] } },
{ "type": "Feature", "properties": { "FEATURE_ID": 219505, "FEATURE_NAME": "Blue Monster Mine", "FEATURE_CLASS": "Mine", "STATE_ALPHA": "CA", "COUNTY_NAME": "Inyo", "PRIM_LAT_DEC": 36.8932645, "PRIM_LONG_DEC": -117.957864, "ELEV_IN_FT": 4846 }, "geometry": { "type": "Point", "coordinates": [ -117.957864, 36.8932645 ] } },
{ "type": "Feature", "properties": { "FEATURE_ID": 219510, "FEATURE_NAME": "Blue Point Mine", "FEATURE_CLASS": "Mine", "STATE_ALPHA": "CA", "COUNTY_NAME": "Yuba", "PRIM_LAT_DEC": 39.2090599, "PRIM_LONG_DEC": -121.2902366, "ELEV_IN_FT": 584 }, "geometry": { "type": "Point", "coordinates": [ -121.2902366, 39.2090599 ] } },
{ "type": "Feature", "properties": { "FEATURE_ID": 219528, "FEATURE_NAME": "Blue Star Mines", "FEATURE_CLASS": "Mine", "STATE_ALPHA": "CA", "COUNTY_NAME": "Inyo", "PRIM_LAT_DEC": 37.1221544, "PRIM_LONG_DEC": -118.4103818, "ELEV_IN_FT": 8097 }, "geometry": { "type": "Point", "coordinates": [ -118.4103818, 37.1221544 ] } },
{ "type": "Feature", "properties": { "FEATURE_ID": 219531, "FEATURE_NAME": "Bluebird Mine", "FEATURE_CLASS": "Mine", "STATE_ALPHA": "CA", "COUNTY_NAME": "El Dorado", "PRIM_LAT_DEC": 38.8835133, "PRIM_LONG_DEC": -120.6715952, "ELEV_IN_FT": 3776 }, "geometry": { "type": "Point", "coordinates": [ -120.6715952, 38.8835133 ] } },
{ "type": "Feature", "properties": { "FEATURE_ID": 219580, "FEATURE_NAME": "Boedner Mine", "FEATURE_CLASS": "Mine", "STATE_ALPHA": "CA", "COUNTY_NAME": "Placer", "PRIM_LAT_DEC": 38.9962896, "PRIM_LONG_DEC": -120.7093726, "ELEV_IN_FT": 3212 }, "geometry": { "type": "Point", "coordinates": [ -120.7093726, 38.9962896 ] } },
{ "type": "Feature", "properties": { "FEATURE_ID": 219625, "FEATURE_NAME": "Bonanza King Mine", "FEATURE_CLASS": "Mine", "STATE_ALPHA": "CA", "COUNTY_NAME": "Trinity", "PRIM_LAT_DEC": 41.0743135, "PRIM_LONG_DEC": -122.6269651, "ELEV_IN_FT": 5919 }, "geometry": { "type": "Point", "coordinates": [ -122.6269651, 41.0743135 ] } },
{ "type": "Feature", "properties": { "FEATURE_ID": 219626, "FEATURE_NAME": "Bonanza Mine", "FEATURE_CLASS": "Mine", "STATE_ALPHA": "CA", "COUNTY_NAME": "Trinity", "PRIM_LAT_DEC": 40.2040378, "PRIM_LONG_DEC": -123.2061321, "ELEV_IN_FT": 3783 }, "geometry": { "type": "Point", "coordinates": [ -123.2061321, 40.2040378 ] } },
{ "type": "Feature", "properties": { "FEATURE_ID": 219636, "FEATURE_NAME": "Bonham Mines", "FEATURE_CLASS": "Mine", "STATE_ALPHA": "CA", "COUNTY_NAME": "Inyo", "PRIM_LAT_DEC": 36.5821574, "PRIM_LONG_DEC": -117.8036889, "ELEV_IN_FT": 7441 }, "geometry": { "type": "Point", "coordinates": [ -117.8036889, 36.5821574 ] } },
{ "type": "Feature", "properties": { "FEATURE_ID": 219657, "FEATURE_NAME": "Bootjack Mine", "FEATURE_CLASS": "Mine", "STATE_ALPHA": "CA", "COUNTY_NAME": "El Dorado", "PRIM_LAT_DEC": 38.96129, "PRIM_LONG_DEC": -120.7052063, "ELEV_IN_FT": 3727 }, "geometry": { "type": "Point", "coordinates": [ -120.7052063, 38.96129 ] } },
{ "type": "Feature", "properties": { "FEATURE_ID": 219695, "FEATURE_NAME": "Boulder Mine", "FEATURE_CLASS": "Mine", "STATE_ALPHA": "CA", "COUNTY_NAME": "El Dorado", "PRIM_LAT_DEC": 38.7549017, "PRIM_LONG_DEC": -120.9957759, "ELEV_IN_FT": 1024 }, "geometry": { "type": "Point", "coordinates": [ -120.9957759, 38.7549017 ] } },
{ "type": "Feature", "properties": { "FEATURE_ID": 219696, "FEATURE_NAME": "Boulder Mine", "FEATURE_CLASS": "Mine", "STATE_ALPHA": "CA", "COUNTY_NAME": "El Dorado", "PRIM_LAT_DEC": 38.8368445, "PRIM_LONG_DEC": -121.0171657, "ELEV_IN_FT": 1175 }, "geometry": { "type": "Point", "coordinates": [ -121.0171657, 38.8368445 ] } },
{ "type": "Feature", "properties": { "FEATURE_ID": 219712, "FEATURE_NAME": "Bowen Mine", "FEATURE_CLASS": "Mine", "STATE_ALPHA": "CA", "COUNTY_NAME": "Placer", "PRIM_LAT_DEC": 39.0732336, "PRIM_LONG_DEC": -120.7227083, "ELEV_IN_FT": 3648 }, "geometry": { "type": "Point", "coordinates": [ -120.7227083, 39.0732336 ] } },
{ "type": "Feature", "properties": { "FEATURE_ID": 219713, "FEATURE_NAME": "Bower Mine", "FEATURE_CLASS": "Mine", "STATE_ALPHA": "CA", "COUNTY_NAME": "Placer", "PRIM_LAT_DEC": 39.0318443, "PRIM_LONG_DEC": -120.7465967, "ELEV_IN_FT": 3159 }, "geometry": { "type": "Point", "coordinates": [ -120.7465967, 39.0318443 ] } },
{ "type": "Feature", "properties": { "FEATURE_ID": 219760, "FEATURE_NAME": "Bradford Mine", "FEATURE_CLASS": "Mine", "STATE_ALPHA": "CA", "COUNTY_NAME": "San Benito", "PRIM_LAT_DEC": 36.650791, "PRIM_LONG_DEC": -121.1032507, "ELEV_IN_FT": 2169 }, "geometry": { "type": "Point", "coordinates": [ -121.1032507, 36.650791 ] } },
{ "type": "Feature", "properties": { "FEATURE_ID": 219810, "FEATURE_NAME": "Briarcliff Mines", "FEATURE_CLASS": "Mine", "STATE_ALPHA": "CA", "COUNTY_NAME": "Amador", "PRIM_LAT_DEC": 38.5632399, "PRIM_LONG_DEC": -120.8349364, "ELEV_IN_FT": 1050 }, "geometry": { "type": "Point", "coordinates": [ -120.8349364, 38.5632399 ] } },
{ "type": "Feature", "properties": { "FEATURE_ID": 219836, "FEATURE_NAME": "Bright Star Mine", "FEATURE_CLASS": "Mine", "STATE_ALPHA": "CA", "COUNTY_NAME": "Shasta", "PRIM_LAT_DEC": 40.6812594, "PRIM_LONG_DEC": -122.5919608, "ELEV_IN_FT": 2644 }, "geometry": { "type": "Point", "coordinates": [ -122.5919608, 40.6812594 ] } },
{ "type": "Feature", "properties": { "FEATURE_ID": 219853, "FEATURE_NAME": "Britt Mine", "FEATURE_CLASS": "Mine", "STATE_ALPHA": "CA", "COUNTY_NAME": "Placer", "PRIM_LAT_DEC": 39.0243442, "PRIM_LONG_DEC": -120.7496521, "ELEV_IN_FT": 3054 }, "geometry": { "type": "Point", "coordinates": [ -120.7496521, 39.0243442 ] } },
{ "type": "Feature", "properties": { "FEATURE_ID": 219885, "FEATURE_NAME": "Brown Bear Mine", "FEATURE_CLASS": "Mine", "STATE_ALPHA": "CA", "COUNTY_NAME": "Trinity", "PRIM_LAT_DEC": 40.7198686, "PRIM_LONG_DEC": -122.7319653, "ELEV_IN_FT": 2818 }, "geometry": { "type": "Point", "coordinates": [ -122.7319653, 40.7198686 ] } },
{ "type": "Feature", "properties": { "FEATURE_ID": 219919, "FEATURE_NAME": "Brunswick Mine", "FEATURE_CLASS": "Mine", "STATE_ALPHA": "CA", "COUNTY_NAME": "Shasta", "PRIM_LAT_DEC": 40.7090359, "PRIM_LONG_DEC": -122.6950197, "ELEV_IN_FT": 3343 }, "geometry": { "type": "Point", "coordinates": [ -122.6950197, 40.7090359 ] } },
{ "type": "Feature", "properties": { "FEATURE_ID": 219921, "FEATURE_NAME": "Bruschi Mine", "FEATURE_CLASS": "Mine", "STATE_ALPHA": "CA", "COUNTY_NAME": "Mariposa", "PRIM_LAT_DEC": 37.6640988, "PRIM_LONG_DEC": -120.2807453, "ELEV_IN_FT": 932 }, "geometry": { "type": "Point", "coordinates": [ -120.2807453, 37.6640988 ] } },
{ "type": "Feature", "properties": { "FEATURE_ID": 219970, "FEATURE_NAME": "Buchanan Mine", "FEATURE_CLASS": "Mine", "STATE_ALPHA": "CA", "COUNTY_NAME": "Madera", "PRIM_LAT_DEC": 37.1868901, "PRIM_LONG_DEC": -119.9915532, "ELEV_IN_FT": 587 }, "geometry": { "type": "Point", "coordinates": [ -119.9915532, 37.1868901 ] } },
{ "type": "Feature", "properties": { "FEATURE_ID": 219995, "FEATURE_NAME": "Buck Mine", "FEATURE_CLASS": "Mine", "STATE_ALPHA": "CA", "COUNTY_NAME": "Mono", "PRIM_LAT_DEC": 37.4899321, "PRIM_LONG_DEC": -117.9609288, "ELEV_IN_FT": 5869 }, "geometry": { "type": "Point", "coordinates": [ -117.9609288, 37.4899321 ] } },
{ "type": "Feature", "properties": { "FEATURE_ID": 220037, "FEATURE_NAME": "Buckeye Mine", "FEATURE_CLASS": "Mine", "STATE_ALPHA": "CA", "COUNTY_NAME": "Sonoma", "PRIM_LAT_DEC": 38.823238, "PRIM_LONG_DEC": -122.8580502, "ELEV_IN_FT": 1955 }, "geometry": { "type": "Point", "coordinates": [ -122.8580502, 38.823238 ] } },
{ "type": "Feature", "properties": { "FEATURE_ID": 220038, "FEATURE_NAME": "Buckeye Mines", "FEATURE_CLASS": "Mine", "STATE_ALPHA": "CA", "COUNTY_NAME": "Stanislaus", "PRIM_LAT_DEC": 37.5279878, "PRIM_LONG_DEC": -121.3954959, "ELEV_IN_FT": 1844 }, "geometry": { "type": "Point", "coordinates": [ -121.3954959, 37.5279878 ] } },
{ "type": "Feature", "properties": { "FEATURE_ID": 220040, "FEATURE_NAME": "Buckeye Pit", "FEATURE_CLASS": "Mine", "STATE_ALPHA": "CA", "COUNTY_NAME": "Placer", "PRIM_LAT_DEC": 39.0398999, "PRIM_LONG_DEC": -120.7474303, "ELEV_IN_FT": 3330 }, "geometry": { "type": "Point", "coordinates": [ -120.7474303, 39.0398999 ] } },
{ "type": "Feature", "properties": { "FEATURE_ID": 220058, "FEATURE_NAME": "Buckhorn Mine", "FEATURE_CLASS": "Mine", "STATE_ALPHA": "CA", "COUNTY_NAME": "Napa", "PRIM_LAT_DEC": 38.6996262, "PRIM_LONG_DEC": -122.3271998, "ELEV_IN_FT": 1175 }, "geometry": { "type": "Point", "coordinates": [ -122.3271998, 38.6996262 ] } },
{ "type": "Feature", "properties": { "FEATURE_ID": 220082, "FEATURE_NAME": "Buffalo Mine", "FEATURE_CLASS": "Mine", "STATE_ALPHA": "CA", "COUNTY_NAME": "Butte", "PRIM_LAT_DEC": 39.5898856, "PRIM_LONG_DEC": -121.529692, "ELEV_IN_FT": 1191 }, "geometry": { "type": "Point", "coordinates": [ -121.529692, 39.5898856 ] } },
{ "type": "Feature", "properties": { "FEATURE_ID": 220083, "FEATURE_NAME": "Buffalo Mine", "FEATURE_CLASS": "Mine", "STATE_ALPHA": "CA", "COUNTY_NAME": "Sierra", "PRIM_LAT_DEC": 39.5985093, "PRIM_LONG_DEC": -120.7029967, "ELEV_IN_FT": 6217 }, "geometry": { "type": "Point", "coordinates": [ -120.7029967, 39.5985093 ] } },
{ "type": "Feature", "properties": { "FEATURE_ID": 220088, "FEATURE_NAME": "Bugtown Mine", "FEATURE_CLASS": "Mine", "STATE_ALPHA": "CA", "COUNTY_NAME": "El Dorado", "PRIM_LAT_DEC": 38.593517, "PRIM_LONG_DEC": -120.93494, "ELEV_IN_FT": 873 }, "geometry": { "type": "Point", "coordinates": [ -120.93494, 38.593517 ] } },
{ "type": "Feature", "properties": { "FEATURE_ID": 220115, "FEATURE_NAME": "Bull Pine Mine", "FEATURE_CLASS": "Mine", "STATE_ALPHA": "CA", "COUNTY_NAME": "Mariposa", "PRIM_LAT_DEC": 37.7032642, "PRIM_LONG_DEC": -120.2590787, "ELEV_IN_FT": 1027 }, "geometry": { "type": "Point", "coordinates": [ -120.2590787, 37.7032642 ] } },
{ "type": "Feature", "properties": { "FEATURE_ID": 220132, "FEATURE_NAME": "Bullion Mine", "FEATURE_CLASS": "Mine", "STATE_ALPHA": "CA", "COUNTY_NAME": "Lake", "PRIM_LAT_DEC": 38.702961, "PRIM_LONG_DEC": -122.6116516, "ELEV_IN_FT": 1345 }, "geometry": { "type": "Point", "coordinates": [ -122.6116516, 38.702961 ] } },
{ "type": "Feature", "properties": { "FEATURE_ID": 220133, "FEATURE_NAME": "Bullion Mine", "FEATURE_CLASS": "Mine", "STATE_ALPHA": "CA", "COUNTY_NAME": "Placer", "PRIM_LAT_DEC": 39.1126785, "PRIM_LONG_DEC": -120.7013198, "ELEV_IN_FT": 3881 }, "geometry": { "type": "Point", "coordinates": [ -120.7013198, 39.1126785 ] } },
{ "type": "Feature", "properties": { "FEATURE_ID": 220139, "FEATURE_NAME": "Bully Choop Mine", "FEATURE_CLASS": "Mine", "STATE_ALPHA": "CA", "COUNTY_NAME": "Trinity", "PRIM_LAT_DEC": 40.5548702, "PRIM_LONG_DEC": -122.7841866, "ELEV_IN_FT": 5410 }, "geometry": { "type": "Point", "coordinates": [ -122.7841866, 40.5548702 ] } },
{ "type": "Feature", "properties": { "FEATURE_ID": 220143, "FEATURE_NAME": "Bumblebee Mine", "FEATURE_CLASS": "Mine", "STATE_ALPHA": "CA", "COUNTY_NAME": "Butte", "PRIM_LAT_DEC": 39.5640526, "PRIM_LONG_DEC": -121.5263584, "ELEV_IN_FT": 1089 }, "geometry": { "type": "Point", "coordinates": [ -121.5263584, 39.5640526 ] } },
{ "type": "Feature", "properties": { "FEATURE_ID": 220162, "FEATURE_NAME": "Bunker Hill Mine", "FEATURE_CLASS": "Mine", "STATE_ALPHA": "CA", "COUNTY_NAME": "Inyo", "PRIM_LAT_DEC": 36.9265978, "PRIM_LONG_DEC": -117.9498083, "ELEV_IN_FT": 5187 }, "geometry": { "type": "Point", "coordinates": [ -117.9498083, 36.9265978 ] } },
{ "type": "Feature", "properties": { "FEATURE_ID": 220163, "FEATURE_NAME": "Bunker Hill Mine", "FEATURE_CLASS": "Mine", "STATE_ALPHA": "CA", "COUNTY_NAME": "Amador", "PRIM_LAT_DEC": 38.4249107, "PRIM_LONG_DEC": -120.8235474, "ELEV_IN_FT": 1181 }, "geometry": { "type": "Point", "coordinates": [ -120.8235474, 38.4249107 ] } },
{ "type": "Feature", "properties": { "FEATURE_ID": 220185, "FEATURE_NAME": "Burgess Mine", "FEATURE_CLASS": "Mine", "STATE_ALPHA": "CA", "COUNTY_NAME": "Inyo", "PRIM_LAT_DEC": 36.6321559, "PRIM_LONG_DEC": -117.9167494, "ELEV_IN_FT": 9626 }, "geometry": { "type": "Point", "coordinates": [ -117.9167494, 36.6321559 ] } },
{ "type": "Feature", "properties": { "FEATURE_ID": 220192, "FEATURE_NAME": "Burlington Mine", "FEATURE_CLASS": "Mine", "STATE_ALPHA": "CA", "COUNTY_NAME": "Sierra", "PRIM_LAT_DEC": 39.5326764, "PRIM_LONG_DEC": -120.7129963, "ELEV_IN_FT": 5699 }, "geometry": { "type": "Point", "coordinates": [ -120.7129963, 39.5326764 ] } },
{ "type": "Feature", "properties": { "FEATURE_ID": 220205, "FEATURE_NAME": "Burnham Pit", "FEATURE_CLASS": "Mine", "STATE_ALPHA": "CA", "COUNTY_NAME": "Placer", "PRIM_LAT_DEC": 39.0329555, "PRIM_LONG_DEC": -120.7460411, "ELEV_IN_FT": 3225 }, "geometry": { "type": "Point", "coordinates": [ -120.7460411, 39.0329555 ] } },
{ "type": "Feature", "properties": { "FEATURE_ID": 220238, "FEATURE_NAME": "Burr Mine", "FEATURE_CLASS": "Mine", "STATE_ALPHA": "CA", "COUNTY_NAME": "Mariposa", "PRIM_LAT_DEC": 37.7190973, "PRIM_LONG_DEC": -120.3290811, "ELEV_IN_FT": 1266 }, "geometry": { "type": "Point", "coordinates": [ -120.3290811, 37.7190973 ] } },
{ "type": "Feature", "properties": { "FEATURE_ID": 220249, "FEATURE_NAME": "Burroughs Pit", "FEATURE_CLASS": "Mine", "STATE_ALPHA": "CA", "COUNTY_NAME": "Placer", "PRIM_LAT_DEC": 39.0296221, "PRIM_LONG_DEC": -120.7471522, "ELEV_IN_FT": 3153 }, "geometry": { "type": "Point", "coordinates": [ -120.7471522, 39.0296221 ] } },
{ "type": "Feature", "properties": { "FEATURE_ID": 220251, "FEATURE_NAME": "Burroughs Tunnel", "FEATURE_CLASS": "Mine", "STATE_ALPHA": "CA", "COUNTY_NAME": "Placer", "PRIM_LAT_DEC": 39.0304555, "PRIM_LONG_DEC": -120.7465967, "ELEV_IN_FT": 3179 }, "geometry": { "type": "Point", "coordinates": [ -120.7465967, 39.0304555 ] } },
{ "type": "Feature", "properties": { "FEATURE_ID": 220296, "FEATURE_NAME": "Butte Mine", "FEATURE_CLASS": "Mine", "STATE_ALPHA": "CA", "COUNTY_NAME": "Placer", "PRIM_LAT_DEC": 39.0607344, "PRIM_LONG_DEC": -120.6829845, "ELEV_IN_FT": 1919 }, "geometry": { "type": "Point", "coordinates": [ -120.6829845, 39.0607344 ] } },
{ "type": "Feature", "properties": { "FEATURE_ID": 220308, "FEATURE_NAME": "Buttes Saddle Mine", "FEATURE_CLASS": "Mine", "STATE_ALPHA": "CA", "COUNTY_NAME": "Sierra", "PRIM_LAT_DEC": 39.5818439, "PRIM_LONG_DEC": -120.6346608, "ELEV_IN_FT": 6713 }, "geometry": { "type": "Point", "coordinates": [ -120.6346608, 39.5818439 ] } },
{ "type": "Feature", "properties": { "FEATURE_ID": 220327, "FEATURE_NAME": "Buzzard Roost Mine", "FEATURE_CLASS": "Mine", "STATE_ALPHA": "CA", "COUNTY_NAME": "Mariposa", "PRIM_LAT_DEC": 37.7324302, "PRIM_LONG_DEC": -120.3282479, "ELEV_IN_FT": 1191 }, "geometry": { "type": "Point", "coordinates": [ -120.3282479, 37.7324302 ] } },
{ "type": "Feature", "properties": { "FEATURE_ID": 220433, "FEATURE_NAME": "Cameron Mine", "FEATURE_CLASS": "Mine", "STATE_ALPHA": "CA", "COUNTY_NAME": "Placer", "PRIM_LAT_DEC": 39.0907337, "PRIM_LONG_DEC": -120.715764, "ELEV_IN_FT": 3543 }, "geometry": { "type": "Point", "coordinates": [ -120.715764, 39.0907337 ] } },
{ "type": "Feature", "properties": { "FEATURE_ID": 220577, "FEATURE_NAME": "Cape Horn Tunnel", "FEATURE_CLASS": "Mine", "STATE_ALPHA": "CA", "COUNTY_NAME": "Placer", "PRIM_LAT_DEC": 39.1537898, "PRIM_LONG_DEC": -120.6854869, "ELEV_IN_FT": 4321 }, "geometry": { "type": "Point", "coordinates": [ -120.6854869, 39.1537898 ] } },
{ "type": "Feature", "properties": { "FEATURE_ID": 220658, "FEATURE_NAME": "Casa Madera Mine", "FEATURE_CLASS": "Mine", "STATE_ALPHA": "CA", "COUNTY_NAME": "Tuolumne", "PRIM_LAT_DEC": 38.0227005, "PRIM_LONG_DEC": -120.1657427, "ELEV_IN_FT": 3970 }, "geometry": { "type": "Point", "coordinates": [ -120.1657427, 38.0227005 ] } },
{ "type": "Feature", "properties": { "FEATURE_ID": 220684, "FEATURE_NAME": "Cassinelli Mine", "FEATURE_CLASS": "Mine", "STATE_ALPHA": "CA", "COUNTY_NAME": "Calaveras", "PRIM_LAT_DEC": 38.2276957, "PRIM_LONG_DEC": -120.7268783, "ELEV_IN_FT": 1004 }, "geometry": { "type": "Point", "coordinates": [ -120.7268783, 38.2276957 ] } },
{ "type": "Feature", "properties": { "FEATURE_ID": 220837, "FEATURE_NAME": "Central Eureka Mine", "FEATURE_CLASS": "Mine", "STATE_ALPHA": "CA", "COUNTY_NAME": "Amador", "PRIM_LAT_DEC": 38.3829679, "PRIM_LONG_DEC": -120.7974356, "ELEV_IN_FT": 1611 }, "geometry": { "type": "Point", "coordinates": [ -120.7974356, 38.3829679 ] } },
{ "type": "Feature", "properties": { "FEATURE_ID": 220841, "FEATURE_NAME": "Central Hill Mine", "FEATURE_CLASS": "Mine", "STATE_ALPHA": "CA", "COUNTY_NAME": "Calaveras", "PRIM_LAT_DEC": 38.2157515, "PRIM_LONG_DEC": -120.7371564, "ELEV_IN_FT": 1050 }, "geometry": { "type": "Point", "coordinates": [ -120.7371564, 38.2157515 ] } },
{ "type": "Feature", "properties": { "FEATURE_ID": 220843, "FEATURE_NAME": "Central Mine", "FEATURE_CLASS": "Mine", "STATE_ALPHA": "CA", "COUNTY_NAME": "Placer", "PRIM_LAT_DEC": 39.0868454, "PRIM_LONG_DEC": -120.6832629, "ELEV_IN_FT": 3835 }, "geometry": { "type": "Point", "coordinates": [ -120.6832629, 39.0868454 ] } },
{ "type": "Feature", "properties": { "FEATURE_ID": 220862, "FEATURE_NAME": "Cerro Gordo Mine", "FEATURE_CLASS": "Mine", "STATE_ALPHA": "CA", "COUNTY_NAME": "Inyo", "PRIM_LAT_DEC": 36.5393799, "PRIM_LONG_DEC": -117.791744, "ELEV_IN_FT": 8556 }, "geometry": { "type": "Point", "coordinates": [ -117.791744, 36.5393799 ] } },
{ "type": "Feature", "properties": { "FEATURE_ID": 220935, "FEATURE_NAME": "Chemung Mine", "FEATURE_CLASS": "Mine", "STATE_ALPHA": "CA", "COUNTY_NAME": "Mono", "PRIM_LAT_DEC": 38.3499173, "PRIM_LONG_DEC": -119.1498726, "ELEV_IN_FT": 8172 }, "geometry": { "type": "Point", "coordinates": [ -119.1498726, 38.3499173 ] } },
{ "type": "Feature", "properties": { "FEATURE_ID": 220972, "FEATURE_NAME": "Chicago Mine", "FEATURE_CLASS": "Mine", "STATE_ALPHA": "CA", "COUNTY_NAME": "Lake", "PRIM_LAT_DEC": 38.7443507, "PRIM_LONG_DEC": -122.7024892, "ELEV_IN_FT": 2710 }, "geometry": { "type": "Point", "coordinates": [ -122.7024892, 38.7443507 ] } },
{ "type": "Feature", "properties": { "FEATURE_ID": 220979, "FEATURE_NAME": "Chickenfeed Mine", "FEATURE_CLASS": "Mine", "STATE_ALPHA": "CA", "COUNTY_NAME": "Tuolumne", "PRIM_LAT_DEC": 37.9802024, "PRIM_LONG_DEC": -120.252689, "ELEV_IN_FT": 3087 }, "geometry": { "type": "Point", "coordinates": [ -120.252689, 37.9802024 ] } },
{ "type": "Feature", "properties": { "FEATURE_ID": 221025, "FEATURE_NAME": "China Creek Mine", "FEATURE_CLASS": "Mine", "STATE_ALPHA": "CA", "COUNTY_NAME": "Siskiyou", "PRIM_LAT_DEC": 41.7973482, "PRIM_LONG_DEC": -123.3147757, "ELEV_IN_FT": 1207 }, "geometry": { "type": "Point", "coordinates": [ -123.3147757, 41.7973482 ] } },
{ "type": "Feature", "properties": { "FEATURE_ID": 221050, "FEATURE_NAME": "China Mine", "FEATURE_CLASS": "Mine", "STATE_ALPHA": "CA", "COUNTY_NAME": "Del Norte", "PRIM_LAT_DEC": 41.71206, "PRIM_LONG_DEC": -123.8975721, "ELEV_IN_FT": 958 }, "geometry": { "type": "Point", "coordinates": [ -123.8975721, 41.71206 ] } },
{ "type": "Feature", "properties": { "FEATURE_ID": 221094, "FEATURE_NAME": "Chrome Mine", "FEATURE_CLASS": "Mine", "STATE_ALPHA": "CA", "COUNTY_NAME": "El Dorado", "PRIM_LAT_DEC": 38.7815677, "PRIM_LONG_DEC": -121.0868896, "ELEV_IN_FT": 1053 }, "geometry": { "type": "Point", "coordinates": [ -121.0868896, 38.7815677 ] } },
{ "type": "Feature", "properties": { "FEATURE_ID": 221101, "FEATURE_NAME": "Church Mine", "FEATURE_CLASS": "Mine", "STATE_ALPHA": "CA", "COUNTY_NAME": "El Dorado", "PRIM_LAT_DEC": 38.6532379, "PRIM_LONG_DEC": -120.8285472, "ELEV_IN_FT": 1168 }, "geometry": { "type": "Point", "coordinates": [ -120.8285472, 38.6532379 ] } },
{ "type": "Feature", "properties": { "FEATURE_ID": 221144, "FEATURE_NAME": "Clara H Mine", "FEATURE_CLASS": "Mine", "STATE_ALPHA": "CA", "COUNTY_NAME": "Fresno", "PRIM_LAT_DEC": 36.9468939, "PRIM_LONG_DEC": -119.4162401, "ELEV_IN_FT": 1939 }, "geometry": { "type": "Point", "coordinates": [ -119.4162401, 36.9468939 ] } },
{ "type": "Feature", "properties": { "FEATURE_ID": 221202, "FEATURE_NAME": "Cleaver Mine", "FEATURE_CLASS": "Mine", "STATE_ALPHA": "CA", "COUNTY_NAME": "Siskiyou", "PRIM_LAT_DEC": 41.2562494, "PRIM_LONG_DEC": -123.0836514, "ELEV_IN_FT": 4596 }, "geometry": { "type": "Point", "coordinates": [ -123.0836514, 41.2562494 ] } },
{ "type": "Feature", "properties": { "FEATURE_ID": 221211, "FEATURE_NAME": "Cleveland Mine", "FEATURE_CLASS": "Mine", "STATE_ALPHA": "CA", "COUNTY_NAME": "Sierra", "PRIM_LAT_DEC": 39.5610094, "PRIM_LONG_DEC": -120.7135523, "ELEV_IN_FT": 4209 }, "geometry": { "type": "Point", "coordinates": [ -120.7135523, 39.5610094 ] } },
{ "type": "Feature", "properties": { "FEATURE_ID": 221212, "FEATURE_NAME": "Cleveland Mine", "FEATURE_CLASS": "Mine", "STATE_ALPHA": "CA", "COUNTY_NAME": "Trinity", "PRIM_LAT_DEC": 40.5465371, "PRIM_LONG_DEC": -122.7816865, "ELEV_IN_FT": 5266 }, "geometry": { "type": "Point", "coordinates": [ -122.7816865, 40.5465371 ] } },
{ "type": "Feature", "properties": { "FEATURE_ID": 221230, "FEATURE_NAME": "Clio Mine", "FEATURE_CLASS": "Mine", "STATE_ALPHA": "CA", "COUNTY_NAME": "Tuolumne", "PRIM_LAT_DEC": 37.8463165, "PRIM_LONG_DEC": -120.3679713, "ELEV_IN_FT": 899 }, "geometry": { "type": "Point", "coordinates": [ -120.3679713, 37.8463165 ] } },
{ "type": "Feature", "properties": { "FEATURE_ID": 221257, "FEATURE_NAME": "Cloverdale Mine Headquarters", "FEATURE_CLASS": "Mine", "STATE_ALPHA": "CA", "COUNTY_NAME": "Sonoma", "PRIM_LAT_DEC": 38.8224049, "PRIM_LONG_DEC": -122.8719396, "ELEV_IN_FT": 1043 }, "geometry": { "type": "Point", "coordinates": [ -122.8719396, 38.8224049 ] } },
{ "type": "Feature", "properties": { "FEATURE_ID": 221268, "FEATURE_NAME": "Clyde Mine", "FEATURE_CLASS": "Mine", "STATE_ALPHA": "CA", "COUNTY_NAME": "Colusa", "PRIM_LAT_DEC": 39.07156, "PRIM_LONG_DEC": -122.4805347, "ELEV_IN_FT": 2621 }, "geometry": { "type": "Point", "coordinates": [ -122.4805347, 39.07156 ] } },
{ "type": "Feature", "properties": { "FEATURE_ID": 221415, "FEATURE_NAME": "Columbo Mine", "FEATURE_CLASS": "Mine", "STATE_ALPHA": "CA", "COUNTY_NAME": "Sierra", "PRIM_LAT_DEC": 39.5790655, "PRIM_LONG_DEC": -120.676329, "ELEV_IN_FT": 5692 }, "geometry": { "type": "Point", "coordinates": [ -120.676329, 39.5790655 ] } },
{ "type": "Feature", "properties": { "FEATURE_ID": 221416, "FEATURE_NAME": "Columbus Mine", "FEATURE_CLASS": "Mine", "STATE_ALPHA": "CA", "COUNTY_NAME": "Tuolumne", "PRIM_LAT_DEC": 37.9827023, "PRIM_LONG_DEC": -120.2485222, "ELEV_IN_FT": 2848 }, "geometry": { "type": "Point", "coordinates": [ -120.2485222, 37.9827023 ] } },
{ "type": "Feature", "properties": { "FEATURE_ID": 221429, "FEATURE_NAME": "Comet Mine", "FEATURE_CLASS": "Mine", "STATE_ALPHA": "CA", "COUNTY_NAME": "Placer", "PRIM_LAT_DEC": 39.0887893, "PRIM_LONG_DEC": -120.7193752, "ELEV_IN_FT": 3566 }, "geometry": { "type": "Point", "coordinates": [ -120.7193752, 39.0887893 ] } },
{ "type": "Feature", "properties": { "FEATURE_ID": 221430, "FEATURE_NAME": "Commodore Mine", "FEATURE_CLASS": "Mine", "STATE_ALPHA": "CA", "COUNTY_NAME": "Sierra", "PRIM_LAT_DEC": 39.5262886, "PRIM_LONG_DEC": -120.6421603, "ELEV_IN_FT": 5758 }, "geometry": { "type": "Point", "coordinates": [ -120.6421603, 39.5262886 ] } },
{ "type": "Feature", "properties": { "FEATURE_ID": 221472, "FEATURE_NAME": "Contact Mine", "FEATURE_CLASS": "Mine", "STATE_ALPHA": "CA", "COUNTY_NAME": "Sonoma", "PRIM_LAT_DEC": 38.7587957, "PRIM_LONG_DEC": -122.764714, "ELEV_IN_FT": 2835 }, "geometry": { "type": "Point", "coordinates": [ -122.764714, 38.7587957 ] } },
{ "type": "Feature", "properties": { "FEATURE_ID": 221525, "FEATURE_NAME": "Cooper Mine", "FEATURE_CLASS": "Mine", "STATE_ALPHA": "CA", "COUNTY_NAME": "Amador", "PRIM_LAT_DEC": 38.5196296, "PRIM_LONG_DEC": -120.7432664, "ELEV_IN_FT": 2047 }, "geometry": { "type": "Point", "coordinates": [ -120.7432664, 38.5196296 ] } },
{ "type": "Feature", "properties": { "FEATURE_ID": 221539, "FEATURE_NAME": "Copper Hill Mine", "FEATURE_CLASS": "Mine", "STATE_ALPHA": "CA", "COUNTY_NAME": "Amador", "PRIM_LAT_DEC": 38.5018527, "PRIM_LONG_DEC": -120.9679966, "ELEV_IN_FT": 607 }, "geometry": { "type": "Point", "coordinates": [ -120.9679966, 38.5018527 ] } },
{ "type": "Feature", "properties": { "FEATURE_ID": 221540, "FEATURE_NAME": "Copper King Mine", "FEATURE_CLASS": "Mine", "STATE_ALPHA": "CA", "COUNTY_NAME": "Fresno", "PRIM_LAT_DEC": 36.9107831, "PRIM_LONG_DEC": -119.4454075, "ELEV_IN_FT": 1588 }, "geometry": { "type": "Point", "coordinates": [ -119.4454075, 36.9107831 ] } },
{ "type": "Feature", "properties": { "FEATURE_ID": 221544, "FEATURE_NAME": "Copper Queen Mine", "FEATURE_CLASS": "Mine", "STATE_ALPHA": "CA", "COUNTY_NAME": "Inyo", "PRIM_LAT_DEC": 37.441043, "PRIM_LONG_DEC": -117.9670392, "ELEV_IN_FT": 6640 }, "geometry": { "type": "Point", "coordinates": [ -117.9670392, 37.441043 ] } },
{ "type": "Feature", "properties": { "FEATURE_ID": 221576, "FEATURE_NAME": "Corona Mine", "FEATURE_CLASS": "Mine", "STATE_ALPHA": "CA", "COUNTY_NAME": "Tuolumne", "PRIM_LAT_DEC": 38.0352004, "PRIM_LONG_DEC": -120.1843544, "ELEV_IN_FT": 3045 }, "geometry": { "type": "Point", "coordinates": [ -120.1843544, 38.0352004 ] } },
{ "type": "Feature", "properties": { "FEATURE_ID": 221577, "FEATURE_NAME": "Corona Mine", "FEATURE_CLASS": "Mine", "STATE_ALPHA": "CA", "COUNTY_NAME": "Napa", "PRIM_LAT_DEC": 38.6693495, "PRIM_LONG_DEC": -122.5410931, "ELEV_IN_FT": 2221 }, "geometry": { "type": "Point", "coordinates": [ -122.5410931, 38.6693495 ] } },
{ "type": "Feature", "properties": { "FEATURE_ID": 221613, "FEATURE_NAME": "Cosumnes Mine", "FEATURE_CLASS": "Mine", "STATE_ALPHA": "CA", "COUNTY_NAME": "El Dorado", "PRIM_LAT_DEC": 38.6643496, "PRIM_LONG_DEC": -120.5365921, "ELEV_IN_FT": 3665 }, "geometry": { "type": "Point", "coordinates": [ -120.5365921, 38.6643496 ] } },
{ "type": "Feature", "properties": { "FEATURE_ID": 221852, "FEATURE_NAME": "Crosby Mine", "FEATURE_CLASS": "Mine", "STATE_ALPHA": "CA", "COUNTY_NAME": "Placer", "PRIM_LAT_DEC": 38.9557305, "PRIM_LONG_DEC": -121.2457851, "ELEV_IN_FT": 361 }, "geometry": { "type": "Point", "coordinates": [ -121.2457851, 38.9557305 ] } },
{ "type": "Feature", "properties": { "FEATURE_ID": 221879, "FEATURE_NAME": "Crusader Mine", "FEATURE_CLASS": "Mine", "STATE_ALPHA": "CA", "COUNTY_NAME": "El Dorado", "PRIM_LAT_DEC": 38.6693487, "PRIM_LONG_DEC": -120.8154911, "ELEV_IN_FT": 1447 }, "geometry": { "type": "Point", "coordinates": [ -120.8154911, 38.6693487 ] } },
{ "type": "Feature", "properties": { "FEATURE_ID": 221886, "FEATURE_NAME": "Crystal Mine", "FEATURE_CLASS": "Mine", "STATE_ALPHA": "CA", "COUNTY_NAME": "El Dorado", "PRIM_LAT_DEC": 38.6346271, "PRIM_LONG_DEC": -120.9113281, "ELEV_IN_FT": 1155 }, "geometry": { "type": "Point", "coordinates": [ -120.9113281, 38.6346271 ] } },
{ "type": "Feature", "properties": { "FEATURE_ID": 221887, "FEATURE_NAME": "Crystal Mine", "FEATURE_CLASS": "Mine", "STATE_ALPHA": "CA", "COUNTY_NAME": "Sonoma", "PRIM_LAT_DEC": 38.7571292, "PRIM_LONG_DEC": -122.7758255, "ELEV_IN_FT": 2454 }, "geometry": { "type": "Point", "coordinates": [ -122.7758255, 38.7571292 ] } },
{ "type": "Feature", "properties": { "FEATURE_ID": 221890, "FEATURE_NAME": "Cub Bear Mine", "FEATURE_CLASS": "Mine", "STATE_ALPHA": "CA", "COUNTY_NAME": "Siskiyou", "PRIM_LAT_DEC": 41.3554164, "PRIM_LONG_DEC": -123.0214261, "ELEV_IN_FT": 4193 }, "geometry": { "type": "Point", "coordinates": [ -123.0214261, 41.3554164 ] } },
{ "type": "Feature", "properties": { "FEATURE_ID": 221906, "FEATURE_NAME": "Culver-Bear Mine", "FEATURE_CLASS": "Mine", "STATE_ALPHA": "CA", "COUNTY_NAME": "Sonoma", "PRIM_LAT_DEC": 38.7807397, "PRIM_LONG_DEC": -122.8183269, "ELEV_IN_FT": 2451 }, "geometry": { "type": "Point", "coordinates": [ -122.8183269, 38.7807397 ] } },
{ "type": "Feature", "properties": { "FEATURE_ID": 221968, "FEATURE_NAME": "Daffodil Mine", "FEATURE_CLASS": "Mine", "STATE_ALPHA": "CA", "COUNTY_NAME": "Siskiyou", "PRIM_LAT_DEC": 42.0037378, "PRIM_LONG_DEC": -123.0586555, "ELEV_IN_FT": 2582 }, "geometry": { "type": "Point", "coordinates": [ -123.0586555, 42.0037378 ] } },
{ "type": "Feature", "properties": { "FEATURE_ID": 221974, "FEATURE_NAME": "Dairy Farm Mine", "FEATURE_CLASS": "Mine", "STATE_ALPHA": "CA", "COUNTY_NAME": "Placer", "PRIM_LAT_DEC": 39.0307288, "PRIM_LONG_DEC": -121.2891212, "ELEV_IN_FT": 302 }, "geometry": { "type": "Point", "coordinates": [ -121.2891212, 39.0307288 ] } },
{ "type": "Feature", "properties": { "FEATURE_ID": 222009, "FEATURE_NAME": "Daniel Webster Mine", "FEATURE_CLASS": "Mine", "STATE_ALPHA": "CA", "COUNTY_NAME": "Placer", "PRIM_LAT_DEC": 39.0512892, "PRIM_LONG_DEC": -120.72743, "ELEV_IN_FT": 3415 }, "geometry": { "type": "Point", "coordinates": [ -120.72743, 39.0512892 ] } },
{ "type": "Feature", "properties": { "FEATURE_ID": 222027, "FEATURE_NAME": "Darling Mine", "FEATURE_CLASS": "Mine", "STATE_ALPHA": "CA", "COUNTY_NAME": "Placer", "PRIM_LAT_DEC": 39.0832342, "PRIM_LONG_DEC": -120.6902076, "ELEV_IN_FT": 3911 }, "geometry": { "type": "Point", "coordinates": [ -120.6902076, 39.0832342 ] } },
{ "type": "Feature", "properties": { "FEATURE_ID": 222035, "FEATURE_NAME": "Daulton Mine", "FEATURE_CLASS": "Mine", "STATE_ALPHA": "CA", "COUNTY_NAME": "Madera", "PRIM_LAT_DEC": 37.10328, "PRIM_LONG_DEC": -119.9684944, "ELEV_IN_FT": 449 }, "geometry": { "type": "Point", "coordinates": [ -119.9684944, 37.10328 ] } },
{ "type": "Feature", "properties": { "FEATURE_ID": 222251, "FEATURE_NAME": "Delores Mine", "FEATURE_CLASS": "Mine", "STATE_ALPHA": "CA", "COUNTY_NAME": "El Dorado", "PRIM_LAT_DEC": 38.755735, "PRIM_LONG_DEC": -120.9893867, "ELEV_IN_FT": 1027 }, "geometry": { "type": "Point", "coordinates": [ -120.9893867, 38.755735 ] } },
{ "type": "Feature", "properties": { "FEATURE_ID": 222270, "FEATURE_NAME": "Derby Mine", "FEATURE_CLASS": "Mine", "STATE_ALPHA": "CA", "COUNTY_NAME": "Placer", "PRIM_LAT_DEC": 39.1054562, "PRIM_LONG_DEC": -120.7071531, "ELEV_IN_FT": 3494 }, "geometry": { "type": "Point", "coordinates": [ -120.7071531, 39.1054562 ] } },
{ "type": "Feature", "properties": { "FEATURE_ID": 222273, "FEATURE_NAME": "Desmond Mine", "FEATURE_CLASS": "Mine", "STATE_ALPHA": "CA", "COUNTY_NAME": "Shasta", "PRIM_LAT_DEC": 40.6493156, "PRIM_LONG_DEC": -122.543348, "ELEV_IN_FT": 1535 }, "geometry": { "type": "Point", "coordinates": [ -122.543348, 40.6493156 ] } },
{ "type": "Feature", "properties": { "FEATURE_ID": 222351, "FEATURE_NAME": "Diamond Mine", "FEATURE_CLASS": "Mine", "STATE_ALPHA": "CA", "COUNTY_NAME": "Tuolumne", "PRIM_LAT_DEC": 37.6610433, "PRIM_LONG_DEC": -120.3157464, "ELEV_IN_FT": 1089 }, "geometry": { "type": "Point", "coordinates": [ -120.3157464, 37.6610433 ] } },
{ "type": "Feature", "properties": { "FEATURE_ID": 222394, "FEATURE_NAME": "Dimmick Mine", "FEATURE_CLASS": "Mine", "STATE_ALPHA": "CA", "COUNTY_NAME": "Siskiyou", "PRIM_LAT_DEC": 41.2751385, "PRIM_LONG_DEC": -123.0658728, "ELEV_IN_FT": 3793 }, "geometry": { "type": "Point", "coordinates": [ -123.0658728, 41.2751385 ] } },
{ "type": "Feature", "properties": { "FEATURE_ID": 222416, "FEATURE_NAME": "Discovery Mine", "FEATURE_CLASS": "Mine", "STATE_ALPHA": "CA", "COUNTY_NAME": "Calaveras", "PRIM_LAT_DEC": 37.9729804, "PRIM_LONG_DEC": -120.6343711, "ELEV_IN_FT": 948 }, "geometry": { "type": "Point", "coordinates": [ -120.6343711, 37.9729804 ] } },
{ "type": "Feature", "properties": { "FEATURE_ID": 222426, "FEATURE_NAME": "Dix Mine", "FEATURE_CLASS": "Mine", "STATE_ALPHA": "CA", "COUNTY_NAME": "Placer", "PRIM_LAT_DEC": 39.1043452, "PRIM_LONG_DEC": -120.6921526, "ELEV_IN_FT": 3835 }, "geometry": { "type": "Point", "coordinates": [ -120.6921526, 39.1043452 ] } },
{ "type": "Feature", "properties": { "FEATURE_ID": 222427, "FEATURE_NAME": "Dix Mine", "FEATURE_CLASS": "Mine", "STATE_ALPHA": "CA", "COUNTY_NAME": "Butte", "PRIM_LAT_DEC": 39.9229384, "PRIM_LONG_DEC": -121.6177528, "ELEV_IN_FT": 2323 }, "geometry": { "type": "Point", "coordinates": [ -121.6177528, 39.9229384 ] } },
{ "type": "Feature", "properties": { "FEATURE_ID": 222429, "FEATURE_NAME": "Dixie Queen Mine", "FEATURE_CLASS": "Mine", "STATE_ALPHA": "CA", "COUNTY_NAME": "Trinity", "PRIM_LAT_DEC": 40.6212576, "PRIM_LONG_DEC": -122.8541892, "ELEV_IN_FT": 2694 }, "geometry": { "type": "Point", "coordinates": [ -122.8541892, 40.6212576 ] } },
{ "type": "Feature", "properties": { "FEATURE_ID": 222479, "FEATURE_NAME": "Domingas Mine", "FEATURE_CLASS": "Mine", "STATE_ALPHA": "CA", "COUNTY_NAME": "Mariposa", "PRIM_LAT_DEC": 37.4985482, "PRIM_LONG_DEC": -120.2049063, "ELEV_IN_FT": 1066 }, "geometry": { "type": "Point", "coordinates": [ -120.2049063, 37.4985482 ] } },
{ "type": "Feature", "properties": { "FEATURE_ID": 222500, "FEATURE_NAME": "Donnebroug Mine", "FEATURE_CLASS": "Mine", "STATE_ALPHA": "CA", "COUNTY_NAME": "Yuba", "PRIM_LAT_DEC": 39.2426695, "PRIM_LONG_DEC": -121.4107964, "ELEV_IN_FT": 305 }, "geometry": { "type": "Point", "coordinates": [ -121.4107964, 39.2426695 ] } },
{ "type": "Feature", "properties": { "FEATURE_ID": 222522, "FEATURE_NAME": "Dorer Mine", "FEATURE_CLASS": "Mine", "STATE_ALPHA": "CA", "COUNTY_NAME": "Placer", "PRIM_LAT_DEC": 39.1821224, "PRIM_LONG_DEC": -120.7232667, "ELEV_IN_FT": 2133 }, "geometry": { "type": "Point", "coordinates": [ -120.7232667, 39.1821224 ] } },
{ "type": "Feature", "properties": { "FEATURE_ID": 222537, "FEATURE_NAME": "Dottie Q Mine", "FEATURE_CLASS": "Mine", "STATE_ALPHA": "CA", "COUNTY_NAME": "Sierra", "PRIM_LAT_DEC": 39.5804552, "PRIM_LONG_DEC": -120.6263272, "ELEV_IN_FT": 6125 }, "geometry": { "type": "Point", "coordinates": [ -120.6263272, 39.5804552 ] } },
{ "type": "Feature", "properties": { "FEATURE_ID": 222548, "FEATURE_NAME": "Double O Mine", "FEATURE_CLASS": "Mine", "STATE_ALPHA": "CA", "COUNTY_NAME": "Placer", "PRIM_LAT_DEC": 39.0926788, "PRIM_LONG_DEC": -120.6832631, "ELEV_IN_FT": 3763 }, "geometry": { "type": "Point", "coordinates": [ -120.6832631, 39.0926788 ] } },
{ "type": "Feature", "properties": { "FEATURE_ID": 222600, "FEATURE_NAME": "Drummond Pit", "FEATURE_CLASS": "Mine", "STATE_ALPHA": "CA", "COUNTY_NAME": "Placer", "PRIM_LAT_DEC": 39.0646226, "PRIM_LONG_DEC": -120.7204857, "ELEV_IN_FT": 3376 }, "geometry": { "type": "Point", "coordinates": [ -120.7204857, 39.0646226 ] } },
{ "type": "Feature", "properties": { "FEATURE_ID": 222670, "FEATURE_NAME": "Duarte Mine", "FEATURE_CLASS": "Mine", "STATE_ALPHA": "CA", "COUNTY_NAME": "Inyo", "PRIM_LAT_DEC": 36.6718768, "PRIM_LONG_DEC": -117.9964756, "ELEV_IN_FT": 5180 }, "geometry": { "type": "Point", "coordinates": [ -117.9964756, 36.6718768 ] } },
{ "type": "Feature", "properties": { "FEATURE_ID": 222772, "FEATURE_NAME": "Dutch Hill Mine", "FEATURE_CLASS": "Mine", "STATE_ALPHA": "CA", "COUNTY_NAME": "Plumas", "PRIM_LAT_DEC": 40.1190546, "PRIM_LONG_DEC": -121.1035716, "ELEV_IN_FT": 4655 }, "geometry": { "type": "Point", "coordinates": [ -121.1035716, 40.1190546 ] } },
{ "type": "Feature", "properties": { "FEATURE_ID": 222811, "FEATURE_NAME": "Eagle King Mine", "FEATURE_CLASS": "Mine", "STATE_ALPHA": "CA", "COUNTY_NAME": "El Dorado", "PRIM_LAT_DEC": 38.6582387, "PRIM_LONG_DEC": -120.5368698, "ELEV_IN_FT": 3809 }, "geometry": { "type": "Point", "coordinates": [ -120.5368698, 38.6582387 ] } },
{ "type": "Feature", "properties": { "FEATURE_ID": 222814, "FEATURE_NAME": "Eagle Mine", "FEATURE_CLASS": "Mine", "STATE_ALPHA": "CA", "COUNTY_NAME": "El Dorado", "PRIM_LAT_DEC": 38.6537943, "PRIM_LONG_DEC": -120.5388144, "ELEV_IN_FT": 3976 }, "geometry": { "type": "Point", "coordinates": [ -120.5388144, 38.6537943 ] } },
{ "type": "Feature", "properties": { "FEATURE_ID": 222815, "FEATURE_NAME": "Elgin Mine", "FEATURE_CLASS": "Mine", "STATE_ALPHA": "CA", "COUNTY_NAME": "Colusa", "PRIM_LAT_DEC": 39.0557271, "PRIM_LONG_DEC": -122.4724786, "ELEV_IN_FT": 2152 }, "geometry": { "type": "Point", "coordinates": [ -122.4724786, 39.0557271 ] } },
{ "type": "Feature", "properties": { "FEATURE_ID": 222839, "FEATURE_NAME": "Eaglebird Mine", "FEATURE_CLASS": "Mine", "STATE_ALPHA": "CA", "COUNTY_NAME": "Sierra", "PRIM_LAT_DEC": 39.5348981, "PRIM_LONG_DEC": -120.7432753, "ELEV_IN_FT": 5886 }, "geometry": { "type": "Point", "coordinates": [ -120.7432753, 39.5348981 ] } },
{ "type": "Feature", "properties": { "FEATURE_ID": 222844, "FEATURE_NAME": "Early Bird Mine", "FEATURE_CLASS": "Mine", "STATE_ALPHA": "CA", "COUNTY_NAME": "Shasta", "PRIM_LAT_DEC": 40.7257041, "PRIM_LONG_DEC": -122.5180702, "ELEV_IN_FT": 2799 }, "geometry": { "type": "Point", "coordinates": [ -122.5180702, 40.7257041 ] } },
{ "type": "Feature", "properties": { "FEATURE_ID": 222946, "FEATURE_NAME": "Eastman Mine", "FEATURE_CLASS": "Mine", "STATE_ALPHA": "CA", "COUNTY_NAME": "Placer", "PRIM_LAT_DEC": 39.0443451, "PRIM_LONG_DEC": -120.7057625, "ELEV_IN_FT": 1837 }, "geometry": { "type": "Point", "coordinates": [ -120.7057625, 39.0443451 ] } },
{ "type": "Feature", "properties": { "FEATURE_ID": 223011, "FEATURE_NAME": "Eiler Mine", "FEATURE_CLASS": "Mine", "STATE_ALPHA": "CA", "COUNTY_NAME": "Shasta", "PRIM_LAT_DEC": 40.6445937, "PRIM_LONG_DEC": -122.5183473, "ELEV_IN_FT": 2001 }, "geometry": { "type": "Point", "coordinates": [ -122.5183473, 40.6445937 ] } },
{ "type": "Feature", "properties": { "FEATURE_ID": 223034, "FEATURE_NAME": "El Dorado Hill Mine", "FEATURE_CLASS": "Mine", "STATE_ALPHA": "CA", "COUNTY_NAME": "Placer", "PRIM_LAT_DEC": 39.050456, "PRIM_LONG_DEC": -120.718263, "ELEV_IN_FT": 3136 }, "geometry": { "type": "Point", "coordinates": [ -120.718263, 39.050456 ] } },
{ "type": "Feature", "properties": { "FEATURE_ID": 223036, "FEATURE_NAME": "El Dorado Mine", "FEATURE_CLASS": "Mine", "STATE_ALPHA": "CA", "COUNTY_NAME": "Shasta", "PRIM_LAT_DEC": 40.6593147, "PRIM_LONG_DEC": -122.6377952, "ELEV_IN_FT": 1312 }, "geometry": { "type": "Point", "coordinates": [ -122.6377952, 40.6593147 ] } },
{ "type": "Feature", "properties": { "FEATURE_ID": 223138, "FEATURE_NAME": "Elkhorn Mine", "FEATURE_CLASS": "Mine", "STATE_ALPHA": "CA", "COUNTY_NAME": "Placer", "PRIM_LAT_DEC": 39.0879566, "PRIM_LONG_DEC": -120.6854852, "ELEV_IN_FT": 3921 }, "geometry": { "type": "Point", "coordinates": [ -120.6854852, 39.0879566 ] } },
{ "type": "Feature", "properties": { "FEATURE_ID": 223175, "FEATURE_NAME": "Ely Ray Mine", "FEATURE_CLASS": "Mine", "STATE_ALPHA": "CA", "COUNTY_NAME": "San Benito", "PRIM_LAT_DEC": 36.6380104, "PRIM_LONG_DEC": -120.93463, "ELEV_IN_FT": 1942 }, "geometry": { "type": "Point", "coordinates": [ -120.93463, 36.6380104 ] } },
{ "type": "Feature", "properties": { "FEATURE_ID": 223192, "FEATURE_NAME": "Emma Mine", "FEATURE_CLASS": "Mine", "STATE_ALPHA": "CA", "COUNTY_NAME": "Calaveras", "PRIM_LAT_DEC": 38.2015852, "PRIM_LONG_DEC": -120.8543818, "ELEV_IN_FT": 614 }, "geometry": { "type": "Point", "coordinates": [ -120.8543818, 38.2015852 ] } },
{ "type": "Feature", "properties": { "FEATURE_ID": 223198, "FEATURE_NAME": "Empire Mine", "FEATURE_CLASS": "Mine", "STATE_ALPHA": "CA", "COUNTY_NAME": "Calaveras", "PRIM_LAT_DEC": 37.9799247, "PRIM_LONG_DEC": -120.6424272, "ELEV_IN_FT": 974 }, "geometry": { "type": "Point", "coordinates": [ -120.6424272, 37.9799247 ] } },
{ "type": "Feature", "properties": { "FEATURE_ID": 223199, "FEATURE_NAME": "Empire Mine", "FEATURE_CLASS": "Mine", "STATE_ALPHA": "CA", "COUNTY_NAME": "Amador", "PRIM_LAT_DEC": 38.4779644, "PRIM_LONG_DEC": -120.8468813, "ELEV_IN_FT": 1070 }, "geometry": { "type": "Point", "coordinates": [ -120.8468813, 38.4779644 ] } },
{ "type": "Feature", "properties": { "FEATURE_ID": 223200, "FEATURE_NAME": "Empire Mine", "FEATURE_CLASS": "Mine", "STATE_ALPHA": "CA", "COUNTY_NAME": "Colusa", "PRIM_LAT_DEC": 39.0340611, "PRIM_LONG_DEC": -122.4260884, "ELEV_IN_FT": 1483 }, "geometry": { "type": "Point", "coordinates": [ -122.4260884, 39.0340611 ] } },
{ "type": "Feature", "properties": { "FEATURE_ID": 223201, "FEATURE_NAME": "Empire Mine", "FEATURE_CLASS": "Mine", "STATE_ALPHA": "CA", "COUNTY_NAME": "Nevada", "PRIM_LAT_DEC": 39.2062833, "PRIM_LONG_DEC": -121.0455041, "ELEV_IN_FT": 2697 }, "geometry": { "type": "Point", "coordinates": [ -121.0455041, 39.2062833 ] } },
{ "type": "Feature", "properties": { "FEATURE_ID": 223220, "FEATURE_NAME": "Enriquita Mine", "FEATURE_CLASS": "Mine", "STATE_ALPHA": "CA", "COUNTY_NAME": "Santa Clara", "PRIM_LAT_DEC": 37.1935562, "PRIM_LONG_DEC": -121.8702318, "ELEV_IN_FT": 807 }, "geometry": { "type": "Point", "coordinates": [ -121.8702318, 37.1935562 ] } },
{ "type": "Feature", "properties": { "FEATURE_ID": 223253, "FEATURE_NAME": "Estelle Tunnel", "FEATURE_CLASS": "Mine", "STATE_ALPHA": "CA", "COUNTY_NAME": "Inyo", "PRIM_LAT_DEC": 36.5218798, "PRIM_LONG_DEC": -117.8148005, "ELEV_IN_FT": 6096 }, "geometry": { "type": "Point", "coordinates": [ -117.8148005, 36.5218798 ] } },
{ "type": "Feature", "properties": { "FEATURE_ID": 223263, "FEATURE_NAME": "Etna Mine", "FEATURE_CLASS": "Mine", "STATE_ALPHA": "CA", "COUNTY_NAME": "Calaveras", "PRIM_LAT_DEC": 38.3713017, "PRIM_LONG_DEC": -120.5838171, "ELEV_IN_FT": 2008 }, "geometry": { "type": "Point", "coordinates": [ -120.5838171, 38.3713017 ] } },
{ "type": "Feature", "properties": { "FEATURE_ID": 223276, "FEATURE_NAME": "Eureka Mine", "FEATURE_CLASS": "Mine", "STATE_ALPHA": "CA", "COUNTY_NAME": "Sonoma", "PRIM_LAT_DEC": 38.7671287, "PRIM_LONG_DEC": -122.7652696, "ELEV_IN_FT": 3031 }, "geometry": { "type": "Point", "coordinates": [ -122.7652696, 38.7671287 ] } },
{ "type": "Feature", "properties": { "FEATURE_ID": 223280, "FEATURE_NAME": "Eureka Tunnel", "FEATURE_CLASS": "Mine", "STATE_ALPHA": "CA", "COUNTY_NAME": "Placer", "PRIM_LAT_DEC": 39.1457347, "PRIM_LONG_DEC": -120.6518745, "ELEV_IN_FT": 4311 }, "geometry": { "type": "Point", "coordinates": [ -120.6518745, 39.1457347 ] } },
{ "type": "Feature", "properties": { "FEATURE_ID": 223313, "FEATURE_NAME": "Facey Mine", "FEATURE_CLASS": "Mine", "STATE_ALPHA": "CA", "COUNTY_NAME": "Siskiyou", "PRIM_LAT_DEC": 41.346257, "PRIM_LONG_DEC": -122.6658578, "ELEV_IN_FT": 4554 }, "geometry": { "type": "Point", "coordinates": [ -122.6658578, 41.346257 ] } },
{ "type": "Feature", "properties": { "FEATURE_ID": 223317, "FEATURE_NAME": "Fair Oaks Mine", "FEATURE_CLASS": "Mine", "STATE_ALPHA": "CA", "COUNTY_NAME": "Tuolumne", "PRIM_LAT_DEC": 38.0140899, "PRIM_LONG_DEC": -120.1929654, "ELEV_IN_FT": 3986 }, "geometry": { "type": "Point", "coordinates": [ -120.1929654, 38.0140899 ] } },
{ "type": "Feature", "properties": { "FEATURE_ID": 223351, "FEATURE_NAME": "Fairview Number One Mine", "FEATURE_CLASS": "Mine", "STATE_ALPHA": "CA", "COUNTY_NAME": "Placer", "PRIM_LAT_DEC": 39.0451794, "PRIM_LONG_DEC": -120.658539, "ELEV_IN_FT": 3576 }, "geometry": { "type": "Point", "coordinates": [ -120.658539, 39.0451794 ] } },
{ "type": "Feature", "properties": { "FEATURE_ID": 223352, "FEATURE_NAME": "Fairview Number Two Mine", "FEATURE_CLASS": "Mine", "STATE_ALPHA": "CA", "COUNTY_NAME": "Placer", "PRIM_LAT_DEC": 39.0435127, "PRIM_LONG_DEC": -120.6590946, "ELEV_IN_FT": 3547 }, "geometry": { "type": "Point", "coordinates": [ -120.6590946, 39.0435127 ] } },
{ "type": "Feature", "properties": { "FEATURE_ID": 223509, "FEATURE_NAME": "Finley Mine", "FEATURE_CLASS": "Mine", "STATE_ALPHA": "CA", "COUNTY_NAME": "Siskiyou", "PRIM_LAT_DEC": 41.2979145, "PRIM_LONG_DEC": -123.120042, "ELEV_IN_FT": 2228 }, "geometry": { "type": "Point", "coordinates": [ -123.120042, 41.2979145 ] } },
{ "type": "Feature", "properties": { "FEATURE_ID": 223694, "FEATURE_NAME": "Fort Ann Mine", "FEATURE_CLASS": "Mine", "STATE_ALPHA": "CA", "COUNTY_NAME": "Amador", "PRIM_LAT_DEC": 38.4882418, "PRIM_LONG_DEC": -120.6313182, "ELEV_IN_FT": 2490 }, "geometry": { "type": "Point", "coordinates": [ -120.6313182, 38.4882418 ] } },
{ "type": "Feature", "properties": { "FEATURE_ID": 223799, "FEATURE_NAME": "Francis Mine", "FEATURE_CLASS": "Mine", "STATE_ALPHA": "CA", "COUNTY_NAME": "Mariposa", "PRIM_LAT_DEC": 37.3907738, "PRIM_LONG_DEC": -120.0371176, "ELEV_IN_FT": 1020 }, "geometry": { "type": "Point", "coordinates": [ -120.0371176, 37.3907738 ] } },
{ "type": "Feature", "properties": { "FEATURE_ID": 223819, "FEATURE_NAME": "Franklin Mine", "FEATURE_CLASS": "Mine", "STATE_ALPHA": "CA", "COUNTY_NAME": "Shasta", "PRIM_LAT_DEC": 40.722647, "PRIM_LONG_DEC": -122.6708524, "ELEV_IN_FT": 2028 }, "geometry": { "type": "Point", "coordinates": [ -122.6708524, 40.722647 ] } },
{ "type": "Feature", "properties": { "FEATURE_ID": 223821, "FEATURE_NAME": "Franklin Pit", "FEATURE_CLASS": "Mine", "STATE_ALPHA": "CA", "COUNTY_NAME": "Placer", "PRIM_LAT_DEC": 39.0690671, "PRIM_LONG_DEC": -120.7185413, "ELEV_IN_FT": 3281 }, "geometry": { "type": "Point", "coordinates": [ -120.7185413, 39.0690671 ] } },
{ "type": "Feature", "properties": { "FEATURE_ID": 223822, "FEATURE_NAME": "Franklin Pit", "FEATURE_CLASS": "Mine", "STATE_ALPHA": "CA", "COUNTY_NAME": "Placer", "PRIM_LAT_DEC": 39.0715671, "PRIM_LONG_DEC": -120.7182636, "ELEV_IN_FT": 3363 }, "geometry": { "type": "Point", "coordinates": [ -120.7182636, 39.0715671 ] } },
{ "type": "Feature", "properties": { "FEATURE_ID": 223875, "FEATURE_NAME": "Fremont Mine", "FEATURE_CLASS": "Mine", "STATE_ALPHA": "CA", "COUNTY_NAME": "Amador", "PRIM_LAT_DEC": 38.4351882, "PRIM_LONG_DEC": -120.826603, "ELEV_IN_FT": 1197 }, "geometry": { "type": "Point", "coordinates": [ -120.826603, 38.4351882 ] } },
{ "type": "Feature", "properties": { "FEATURE_ID": 223992, "FEATURE_NAME": "Funny Bug Mine", "FEATURE_CLASS": "Mine", "STATE_ALPHA": "CA", "COUNTY_NAME": "El Dorado", "PRIM_LAT_DEC": 38.7479579, "PRIM_LONG_DEC": -120.8932718, "ELEV_IN_FT": 1499 }, "geometry": { "type": "Point", "coordinates": [ -120.8932718, 38.7479579 ] } },
{ "type": "Feature", "properties": { "FEATURE_ID": 224015, "FEATURE_NAME": "Gallia Mine", "FEATURE_CLASS": "Mine", "STATE_ALPHA": "CA", "COUNTY_NAME": "Siskiyou", "PRIM_LAT_DEC": 41.3140236, "PRIM_LONG_DEC": -123.1903232, "ELEV_IN_FT": 1975 }, "geometry": { "type": "Point", "coordinates": [ -123.1903232, 41.3140236 ] } },
{ "type": "Feature", "properties": { "FEATURE_ID": 224070, "FEATURE_NAME": "Ganim Mine", "FEATURE_CLASS": "Mine", "STATE_ALPHA": "CA", "COUNTY_NAME": "Shasta", "PRIM_LAT_DEC": 40.6518154, "PRIM_LONG_DEC": -122.5722377, "ELEV_IN_FT": 1480 }, "geometry": { "type": "Point", "coordinates": [ -122.5722377, 40.6518154 ] } },
{ "type": "Feature", "properties": { "FEATURE_ID": 224088, "FEATURE_NAME": "Gas Hill Mine", "FEATURE_CLASS": "Mine", "STATE_ALPHA": "CA", "COUNTY_NAME": "Placer", "PRIM_LAT_DEC": 39.0826783, "PRIM_LONG_DEC": -120.7146527, "ELEV_IN_FT": 3507 }, "geometry": { "type": "Point", "coordinates": [ -120.7146527, 39.0826783 ] } },
{ "type": "Feature", "properties": { "FEATURE_ID": 224125, "FEATURE_NAME": "Geraldine Mine", "FEATURE_CLASS": "Mine", "STATE_ALPHA": "CA", "COUNTY_NAME": "Tuolumne", "PRIM_LAT_DEC": 38.0402006, "PRIM_LONG_DEC": -120.2137997, "ELEV_IN_FT": 3875 }, "geometry": { "type": "Point", "coordinates": [ -120.2137997, 38.0402006 ] } },
{ "type": "Feature", "properties": { "FEATURE_ID": 224147, "FEATURE_NAME": "Giant King Mine", "FEATURE_CLASS": "Mine", "STATE_ALPHA": "CA", "COUNTY_NAME": "Nevada", "PRIM_LAT_DEC": 39.3368426, "PRIM_LONG_DEC": -120.7949403, "ELEV_IN_FT": 3278 }, "geometry": { "type": "Point", "coordinates": [ -120.7949403, 39.3368426 ] } },
{ "type": "Feature", "properties": { "FEATURE_ID": 224170, "FEATURE_NAME": "Gillespie Dam", "FEATURE_CLASS": "Mine", "STATE_ALPHA": "CA", "COUNTY_NAME": "Sierra", "PRIM_LAT_DEC": 39.5640658, "PRIM_LONG_DEC": -120.665495, "ELEV_IN_FT": 3930 }, "geometry": { "type": "Point", "coordinates": [ -120.665495, 39.5640658 ] } },
{ "type": "Feature", "properties": { "FEATURE_ID": 224199, "FEATURE_NAME": "Gladstone Mine", "FEATURE_CLASS": "Mine", "STATE_ALPHA": "CA", "COUNTY_NAME": "Shasta", "PRIM_LAT_DEC": 40.7209813, "PRIM_LONG_DEC": -122.580572, "ELEV_IN_FT": 1909 }, "geometry": { "type": "Point", "coordinates": [ -122.580572, 40.7209813 ] } },
{ "type": "Feature", "properties": { "FEATURE_ID": 224233, "FEATURE_NAME": "Globe Mine", "FEATURE_CLASS": "Mine", "STATE_ALPHA": "CA", "COUNTY_NAME": "Trinity", "PRIM_LAT_DEC": 40.8909756, "PRIM_LONG_DEC": -122.9897529, "ELEV_IN_FT": 5702 }, "geometry": { "type": "Point", "coordinates": [ -122.9897529, 40.8909756 ] } },
{ "type": "Feature", "properties": { "FEATURE_ID": 224265, "FEATURE_NAME": "Gold Bug Mine", "FEATURE_CLASS": "Mine", "STATE_ALPHA": "CA", "COUNTY_NAME": "Siskiyou", "PRIM_LAT_DEC": 41.902636, "PRIM_LONG_DEC": -122.7578095, "ELEV_IN_FT": 3127 }, "geometry": { "type": "Point", "coordinates": [ -122.7578095, 41.902636 ] } },
{ "type": "Feature", "properties": { "FEATURE_ID": 224272, "FEATURE_NAME": "Gold Hill Mine", "FEATURE_CLASS": "Mine", "STATE_ALPHA": "CA", "COUNTY_NAME": "Calaveras", "PRIM_LAT_DEC": 38.2265846, "PRIM_LONG_DEC": -120.7127111, "ELEV_IN_FT": 889 }, "geometry": { "type": "Point", "coordinates": [ -120.7127111, 38.2265846 ] } },
{ "type": "Feature", "properties": { "FEATURE_ID": 224274, "FEATURE_NAME": "Gold Knoll Mine", "FEATURE_CLASS": "Mine", "STATE_ALPHA": "CA", "COUNTY_NAME": "Calaveras", "PRIM_LAT_DEC": 37.9868691, "PRIM_LONG_DEC": -120.6779845, "ELEV_IN_FT": 1050 }, "geometry": { "type": "Point", "coordinates": [ -120.6779845, 37.9868691 ] } },
{ "type": "Feature", "properties": { "FEATURE_ID": 224276, "FEATURE_NAME": "Gold Point Mine", "FEATURE_CLASS": "Mine", "STATE_ALPHA": "CA", "COUNTY_NAME": "Sierra", "PRIM_LAT_DEC": 39.5737867, "PRIM_LONG_DEC": -120.74022, "ELEV_IN_FT": 3629 }, "geometry": { "type": "Point", "coordinates": [ -120.74022, 39.5737867 ] } },
{ "type": "Feature", "properties": { "FEATURE_ID": 224284, "FEATURE_NAME": "Golden Chief Mine", "FEATURE_CLASS": "Mine", "STATE_ALPHA": "CA", "COUNTY_NAME": "Placer", "PRIM_LAT_DEC": 39.0398999, "PRIM_LONG_DEC": -120.745208, "ELEV_IN_FT": 3304 }, "geometry": { "type": "Point", "coordinates": [ -120.745208, 39.0398999 ] } },
{ "type": "Feature", "properties": { "FEATURE_ID": 224293, "FEATURE_NAME": "Golden Gate Mine", "FEATURE_CLASS": "Mine", "STATE_ALPHA": "CA", "COUNTY_NAME": "Placer", "PRIM_LAT_DEC": 39.0515669, "PRIM_LONG_DEC": -120.7324302, "ELEV_IN_FT": 3779 }, "geometry": { "type": "Point", "coordinates": [ -120.7324302, 39.0515669 ] } },
{ "type": "Feature", "properties": { "FEATURE_ID": 224296, "FEATURE_NAME": "Golden River Tunnel", "FEATURE_CLASS": "Mine", "STATE_ALPHA": "CA", "COUNTY_NAME": "Placer", "PRIM_LAT_DEC": 39.1487895, "PRIM_LONG_DEC": -120.6999318, "ELEV_IN_FT": 3766 }, "geometry": { "type": "Point", "coordinates": [ -120.6999318, 39.1487895 ] } },
{ "type": "Feature", "properties": { "FEATURE_ID": 224297, "FEATURE_NAME": "Golden Rule Mine", "FEATURE_CLASS": "Mine", "STATE_ALPHA": "CA", "COUNTY_NAME": "Tuolumne", "PRIM_LAT_DEC": 37.9102039, "PRIM_LONG_DEC": -120.4135282, "ELEV_IN_FT": 1358 }, "geometry": { "type": "Point", "coordinates": [ -120.4135282, 37.9102039 ] } },
{ "type": "Feature", "properties": { "FEATURE_ID": 224298, "FEATURE_NAME": "Golden Rule Mine", "FEATURE_CLASS": "Mine", "STATE_ALPHA": "CA", "COUNTY_NAME": "Siskiyou", "PRIM_LAT_DEC": 41.938191, "PRIM_LONG_DEC": -122.7547541, "ELEV_IN_FT": 4065 }, "geometry": { "type": "Point", "coordinates": [ -122.7547541, 41.938191 ] } },
{ "type": "Feature", "properties": { "FEATURE_ID": 224300, "FEATURE_NAME": "Golden Treasure Mine", "FEATURE_CLASS": "Mine", "STATE_ALPHA": "CA", "COUNTY_NAME": "Amador", "PRIM_LAT_DEC": 38.5110187, "PRIM_LONG_DEC": -120.7477111, "ELEV_IN_FT": 1932 }, "geometry": { "type": "Point", "coordinates": [ -120.7477111, 38.5110187 ] } },
{ "type": "Feature", "properties": { "FEATURE_ID": 224335, "FEATURE_NAME": "Gopher Hill Mine", "FEATURE_CLASS": "Mine", "STATE_ALPHA": "CA", "COUNTY_NAME": "Calaveras", "PRIM_LAT_DEC": 37.9540921, "PRIM_LONG_DEC": -120.7454875, "ELEV_IN_FT": 850 }, "geometry": { "type": "Point", "coordinates": [ -120.7454875, 37.9540921 ] } },
{ "type": "Feature", "properties": { "FEATURE_ID": 224336, "FEATURE_NAME": "Gopher Mine", "FEATURE_CLASS": "Mine", "STATE_ALPHA": "CA", "COUNTY_NAME": "Amador", "PRIM_LAT_DEC": 38.4387991, "PRIM_LONG_DEC": -120.8316032, "ELEV_IN_FT": 1122 }, "geometry": { "type": "Point", "coordinates": [ -120.8316032, 38.4387991 ] } },
{ "type": "Feature", "properties": { "FEATURE_ID": 224349, "FEATURE_NAME": "Gorman Pit", "FEATURE_CLASS": "Mine", "STATE_ALPHA": "CA", "COUNTY_NAME": "Placer", "PRIM_LAT_DEC": 39.0323999, "PRIM_LONG_DEC": -120.7477079, "ELEV_IN_FT": 3251 }, "geometry": { "type": "Point", "coordinates": [ -120.7477079, 39.0323999 ] } },
{ "type": "Feature", "properties": { "FEATURE_ID": 224376, "FEATURE_NAME": "Gracie Mine", "FEATURE_CLASS": "Mine", "STATE_ALPHA": "CA", "COUNTY_NAME": "Nevada", "PRIM_LAT_DEC": 39.243783, "PRIM_LONG_DEC": -121.0024473, "ELEV_IN_FT": 2874 }, "geometry": { "type": "Point", "coordinates": [ -121.0024473, 39.243783 ] } },
{ "type": "Feature", "properties": { "FEATURE_ID": 224394, "FEATURE_NAME": "Grandview Mine", "FEATURE_CLASS": "Mine", "STATE_ALPHA": "CA", "COUNTY_NAME": "Inyo", "PRIM_LAT_DEC": 37.3279844, "PRIM_LONG_DEC": -118.2084341, "ELEV_IN_FT": 8064 }, "geometry": { "type": "Point", "coordinates": [ -118.2084341, 37.3279844 ] } },
{ "type": "Feature", "properties": { "FEATURE_ID": 224409, "FEATURE_NAME": "Granite King Mine", "FEATURE_CLASS": "Mine", "STATE_ALPHA": "CA", "COUNTY_NAME": "Mariposa", "PRIM_LAT_DEC": 37.4321616, "PRIM_LONG_DEC": -119.9901725, "ELEV_IN_FT": 1496 }, "geometry": { "type": "Point", "coordinates": [ -119.9901725, 37.4321616 ] } },
{ "type": "Feature", "properties": { "FEATURE_ID": 224519, "FEATURE_NAME": "Gray Eagle Mine", "FEATURE_CLASS": "Mine", "STATE_ALPHA": "CA", "COUNTY_NAME": "Inyo", "PRIM_LAT_DEC": 37.3477062, "PRIM_LONG_DEC": -118.2439913, "ELEV_IN_FT": 7300 }, "geometry": { "type": "Point", "coordinates": [ -118.2439913, 37.3477062 ] } },
{ "type": "Feature", "properties": { "FEATURE_ID": 224566, "FEATURE_NAME": "Green Spring Mine", "FEATURE_CLASS": "Mine", "STATE_ALPHA": "CA", "COUNTY_NAME": "Tuolumne", "PRIM_LAT_DEC": 37.8902043, "PRIM_LONG_DEC": -120.563534, "ELEV_IN_FT": 561 }, "geometry": { "type": "Point", "coordinates": [ -120.563534, 37.8902043 ] } },
{ "type": "Feature", "properties": { "FEATURE_ID": 224595, "FEATURE_NAME": "Greenstone Mine", "FEATURE_CLASS": "Mine", "STATE_ALPHA": "CA", "COUNTY_NAME": "El Dorado", "PRIM_LAT_DEC": 38.6851816, "PRIM_LONG_DEC": -120.8882716, "ELEV_IN_FT": 1476 }, "geometry": { "type": "Point", "coordinates": [ -120.8882716, 38.6851816 ] } },
{ "type": "Feature", "properties": { "FEATURE_ID": 224606, "FEATURE_NAME": "Grey Eagle Mine", "FEATURE_CLASS": "Mine", "STATE_ALPHA": "CA", "COUNTY_NAME": "Siskiyou", "PRIM_LAT_DEC": 41.862623, "PRIM_LONG_DEC": -123.3739447, "ELEV_IN_FT": 2503 }, "geometry": { "type": "Point", "coordinates": [ -123.3739447, 41.862623 ] } },
{ "type": "Feature", "properties": { "FEATURE_ID": 224607, "FEATURE_NAME": "Grey Eagle Mine", "FEATURE_CLASS": "Mine", "STATE_ALPHA": "CA", "COUNTY_NAME": "Placer", "PRIM_LAT_DEC": 39.0079537, "PRIM_LONG_DEC": -120.8954932, "ELEV_IN_FT": 2352 }, "geometry": { "type": "Point", "coordinates": [ -120.8954932, 39.0079537 ] } },
{ "type": "Feature", "properties": { "FEATURE_ID": 224610, "FEATURE_NAME": "Greystone Quarry", "FEATURE_CLASS": "Mine", "STATE_ALPHA": "CA", "COUNTY_NAME": "Santa Clara", "PRIM_LAT_DEC": 37.2232776, "PRIM_LONG_DEC": -121.8466195, "ELEV_IN_FT": 351 }, "geometry": { "type": "Point", "coordinates": [ -121.8466195, 37.2232776 ] } },
{ "type": "Feature", "properties": { "FEATURE_ID": 224659, "FEATURE_NAME": "Grouse Creek Mine", "FEATURE_CLASS": "Mine", "STATE_ALPHA": "CA", "COUNTY_NAME": "Siskiyou", "PRIM_LAT_DEC": 41.3165344, "PRIM_LONG_DEC": -122.7233594, "ELEV_IN_FT": 3504 }, "geometry": { "type": "Point", "coordinates": [ -122.7233594, 41.3165344 ] } },
{ "type": "Feature", "properties": { "FEATURE_ID": 224696, "FEATURE_NAME": "Guadalupe Mines", "FEATURE_CLASS": "Mine", "STATE_ALPHA": "CA", "COUNTY_NAME": "Santa Clara", "PRIM_LAT_DEC": 37.2102225, "PRIM_LONG_DEC": -121.8999549, "ELEV_IN_FT": 515 }, "geometry": { "type": "Point", "coordinates": [ -121.8999549, 37.2102225 ] } },
{ "type": "Feature", "properties": { "FEATURE_ID": 224736, "FEATURE_NAME": "Gum Boot Mine", "FEATURE_CLASS": "Mine", "STATE_ALPHA": "CA", "COUNTY_NAME": "Calaveras", "PRIM_LAT_DEC": 38.1679748, "PRIM_LONG_DEC": -120.5052018, "ELEV_IN_FT": 1785 }, "geometry": { "type": "Point", "coordinates": [ -120.5052018, 38.1679748 ] } },
{ "type": "Feature", "properties": { "FEATURE_ID": 224737, "FEATURE_NAME": "Gumboot Mine", "FEATURE_CLASS": "Mine", "STATE_ALPHA": "CA", "COUNTY_NAME": "Siskiyou", "PRIM_LAT_DEC": 41.7473579, "PRIM_LONG_DEC": -122.8839226, "ELEV_IN_FT": 4436 }, "geometry": { "type": "Point", "coordinates": [ -122.8839226, 41.7473579 ] } },
{ "type": "Feature", "properties": { "FEATURE_ID": 224738, "FEATURE_NAME": "Gunbarrel Mine", "FEATURE_CLASS": "Mine", "STATE_ALPHA": "CA", "COUNTY_NAME": "Siskiyou", "PRIM_LAT_DEC": 41.1773572, "PRIM_LONG_DEC": -123.239768, "ELEV_IN_FT": 3816 }, "geometry": { "type": "Point", "coordinates": [ -123.239768, 41.1773572 ] } },
{ "type": "Feature", "properties": { "FEATURE_ID": 224751, "FEATURE_NAME": "Gwin Mine", "FEATURE_CLASS": "Mine", "STATE_ALPHA": "CA", "COUNTY_NAME": "Calaveras", "PRIM_LAT_DEC": 38.2757495, "PRIM_LONG_DEC": -120.7579905, "ELEV_IN_FT": 1027 }, "geometry": { "type": "Point", "coordinates": [ -120.7579905, 38.2757495 ] } },
{ "type": "Feature", "properties": { "FEATURE_ID": 224774, "FEATURE_NAME": "Hageman Mine", "FEATURE_CLASS": "Mine", "STATE_ALPHA": "CA", "COUNTY_NAME": "Calaveras", "PRIM_LAT_DEC": 38.2215847, "PRIM_LONG_DEC": -120.6949326, "ELEV_IN_FT": 833 }, "geometry": { "type": "Point", "coordinates": [ -120.6949326, 38.2215847 ] } },
{ "type": "Feature", "properties": { "FEATURE_ID": 224873, "FEATURE_NAME": "Hanging Valley Mine", "FEATURE_CLASS": "Mine", "STATE_ALPHA": "CA", "COUNTY_NAME": "Inyo", "PRIM_LAT_DEC": 37.327989, "PRIM_LONG_DEC": -118.6770617, "ELEV_IN_FT": 11962 }, "geometry": { "type": "Point", "coordinates": [ -118.6770617, 37.327989 ] } },
{ "type": "Feature", "properties": { "FEATURE_ID": 224917, "FEATURE_NAME": "Hardenbergh Mine", "FEATURE_CLASS": "Mine", "STATE_ALPHA": "CA", "COUNTY_NAME": "Amador", "PRIM_LAT_DEC": 38.2993598, "PRIM_LONG_DEC": -120.7535459, "ELEV_IN_FT": 728 }, "geometry": { "type": "Point", "coordinates": [ -120.7535459, 38.2993598 ] } },
{ "type": "Feature", "properties": { "FEATURE_ID": 224936, "FEATURE_NAME": "Harkness Mine", "FEATURE_CLASS": "Mine", "STATE_ALPHA": "CA", "COUNTY_NAME": "Placer", "PRIM_LAT_DEC": 39.0818455, "PRIM_LONG_DEC": -120.6768737, "ELEV_IN_FT": 3891 }, "geometry": { "type": "Point", "coordinates": [ -120.6768737, 39.0818455 ] } },
{ "type": "Feature", "properties": { "FEATURE_ID": 224955, "FEATURE_NAME": "Harriman Mine", "FEATURE_CLASS": "Mine", "STATE_ALPHA": "CA", "COUNTY_NAME": "Tuolumne", "PRIM_LAT_DEC": 37.838261, "PRIM_LONG_DEC": -120.3496374, "ELEV_IN_FT": 791 }, "geometry": { "type": "Point", "coordinates": [ -120.3496374, 37.838261 ] } },
{ "type": "Feature", "properties": { "FEATURE_ID": 224968, "FEATURE_NAME": "Harrison Mine", "FEATURE_CLASS": "Mine", "STATE_ALPHA": "CA", "COUNTY_NAME": "Yolo", "PRIM_LAT_DEC": 38.8512887, "PRIM_LONG_DEC": -122.3749774, "ELEV_IN_FT": 1988 }, "geometry": { "type": "Point", "coordinates": [ -122.3749774, 38.8512887 ] } },
{ "type": "Feature", "properties": { "FEATURE_ID": 224986, "FEATURE_NAME": "Harvard Mine", "FEATURE_CLASS": "Mine", "STATE_ALPHA": "CA", "COUNTY_NAME": "Tuolumne", "PRIM_LAT_DEC": 37.9454809, "PRIM_LONG_DEC": -120.4376957, "ELEV_IN_FT": 1355 }, "geometry": { "type": "Point", "coordinates": [ -120.4376957, 37.9454809 ] } },
{ "type": "Feature", "properties": { "FEATURE_ID": 225019, "FEATURE_NAME": "Hattie Ester Mine", "FEATURE_CLASS": "Mine", "STATE_ALPHA": "CA", "COUNTY_NAME": "Tuolumne", "PRIM_LAT_DEC": 37.9282586, "PRIM_LONG_DEC": -120.2101883, "ELEV_IN_FT": 2566 }, "geometry": { "type": "Point", "coordinates": [ -120.2101883, 37.9282586 ] } },
{ "type": "Feature", "properties": { "FEATURE_ID": 225086, "FEATURE_NAME": "Hazel Creek Mine", "FEATURE_CLASS": "Mine", "STATE_ALPHA": "CA", "COUNTY_NAME": "El Dorado", "PRIM_LAT_DEC": 38.7418482, "PRIM_LONG_DEC": -120.5190912, "ELEV_IN_FT": 3655 }, "geometry": { "type": "Point", "coordinates": [ -120.5190912, 38.7418482 ] } },
{ "type": "Feature", "properties": { "FEATURE_ID": 225122, "FEATURE_NAME": "Helen Mine", "FEATURE_CLASS": "Mine", "STATE_ALPHA": "CA", "COUNTY_NAME": "Lake", "PRIM_LAT_DEC": 38.7410174, "PRIM_LONG_DEC": -122.7005446, "ELEV_IN_FT": 2644 }, "geometry": { "type": "Point", "coordinates": [ -122.7005446, 38.7410174 ] } },
{ "type": "Feature", "properties": { "FEATURE_ID": 225179, "FEATURE_NAME": "Hennings Mine", "FEATURE_CLASS": "Mine", "STATE_ALPHA": "CA", "COUNTY_NAME": "Siskiyou", "PRIM_LAT_DEC": 41.3326372, "PRIM_LONG_DEC": -123.0855959, "ELEV_IN_FT": 4813 }, "geometry": { "type": "Point", "coordinates": [ -123.0855959, 41.3326372 ] } },
{ "type": "Feature", "properties": { "FEATURE_ID": 225202, "FEATURE_NAME": "Herman Mine", "FEATURE_CLASS": "Mine", "STATE_ALPHA": "CA", "COUNTY_NAME": "Placer", "PRIM_LAT_DEC": 39.1343461, "PRIM_LONG_DEC": -120.6385405, "ELEV_IN_FT": 4350 }, "geometry": { "type": "Point", "coordinates": [ -120.6385405, 39.1343461 ] } },
{ "type": "Feature", "properties": { "FEATURE_ID": 225204, "FEATURE_NAME": "Hermit Mine", "FEATURE_CLASS": "Mine", "STATE_ALPHA": "CA", "COUNTY_NAME": "Placer", "PRIM_LAT_DEC": 39.087956, "PRIM_LONG_DEC": -120.7193752, "ELEV_IN_FT": 3442 }, "geometry": { "type": "Point", "coordinates": [ -120.7193752, 39.087956 ] } },
{ "type": "Feature", "properties": { "FEATURE_ID": 225213, "FEATURE_NAME": "Hess Mine", "FEATURE_CLASS": "Mine", "STATE_ALPHA": "CA", "COUNTY_NAME": "Mono", "PRIM_LAT_DEC": 37.9954786, "PRIM_LONG_DEC": -119.3040462, "ELEV_IN_FT": 10282 }, "geometry": { "type": "Point", "coordinates": [ -119.3040462, 37.9954786 ] } },
{ "type": "Feature", "properties": { "FEATURE_ID": 225232, "FEATURE_NAME": "Hickey Mine", "FEATURE_CLASS": "Mine", "STATE_ALPHA": "CA", "COUNTY_NAME": "Siskiyou", "PRIM_LAT_DEC": 41.2559714, "PRIM_LONG_DEC": -123.0900406, "ELEV_IN_FT": 5289 }, "geometry": { "type": "Point", "coordinates": [ -123.0900406, 41.2559714 ] } },
{ "type": "Feature", "properties": { "FEATURE_ID": 225233, "FEATURE_NAME": "Hickey Mine", "FEATURE_CLASS": "Mine", "STATE_ALPHA": "CA", "COUNTY_NAME": "Siskiyou", "PRIM_LAT_DEC": 41.3045786, "PRIM_LONG_DEC": -123.2125464, "ELEV_IN_FT": 2028 }, "geometry": { "type": "Point", "coordinates": [ -123.2125464, 41.3045786 ] } },
{ "type": "Feature", "properties": { "FEATURE_ID": 225251, "FEATURE_NAME": "Hidden Treasure Mine", "FEATURE_CLASS": "Mine", "STATE_ALPHA": "CA", "COUNTY_NAME": "Placer", "PRIM_LAT_DEC": 39.0968449, "PRIM_LONG_DEC": -120.7124308, "ELEV_IN_FT": 3652 }, "geometry": { "type": "Point", "coordinates": [ -120.7124308, 39.0968449 ] } },
{ "type": "Feature", "properties": { "FEATURE_ID": 225295, "FEATURE_NAME": "Highland Mine", "FEATURE_CLASS": "Mine", "STATE_ALPHA": "CA", "COUNTY_NAME": "Trinity", "PRIM_LAT_DEC": 41.0865377, "PRIM_LONG_DEC": -122.5011283, "ELEV_IN_FT": 6096 }, "geometry": { "type": "Point", "coordinates": [ -122.5011283, 41.0865377 ] } },
{ "type": "Feature", "properties": { "FEATURE_ID": 225296, "FEATURE_NAME": "Highland Mine", "FEATURE_CLASS": "Mine", "STATE_ALPHA": "CA", "COUNTY_NAME": "Siskiyou", "PRIM_LAT_DEC": 41.3440279, "PRIM_LONG_DEC": -123.0119812, "ELEV_IN_FT": 5761 }, "geometry": { "type": "Point", "coordinates": [ -123.0119812, 41.3440279 ] } },
{ "type": "Feature", "properties": { "FEATURE_ID": 225313, "FEATURE_NAME": "Highway Forty Mine", "FEATURE_CLASS": "Mine", "STATE_ALPHA": "CA", "COUNTY_NAME": "Placer", "PRIM_LAT_DEC": 38.8671214, "PRIM_LONG_DEC": -121.1510589, "ELEV_IN_FT": 718 }, "geometry": { "type": "Point", "coordinates": [ -121.1510589, 38.8671214 ] } },
{ "type": "Feature", "properties": { "FEATURE_ID": 225333, "FEATURE_NAME": "Hills Mine", "FEATURE_CLASS": "Mine", "STATE_ALPHA": "CA", "COUNTY_NAME": "Mariposa", "PRIM_LAT_DEC": 37.3552186, "PRIM_LONG_DEC": -120.1646222, "ELEV_IN_FT": 715 }, "geometry": { "type": "Point", "coordinates": [ -120.1646222, 37.3552186 ] } },
{ "type": "Feature", "properties": { "FEATURE_ID": 225336, "FEATURE_NAME": "Hillsdale Mine", "FEATURE_CLASS": "Mine", "STATE_ALPHA": "CA", "COUNTY_NAME": "Santa Clara", "PRIM_LAT_DEC": 37.2896647, "PRIM_LONG_DEC": -121.8571757, "ELEV_IN_FT": 157 }, "geometry": { "type": "Point", "coordinates": [ -121.8571757, 37.2896647 ] } },
{ "type": "Feature", "properties": { "FEATURE_ID": 225356, "FEATURE_NAME": "Hinchy Mine", "FEATURE_CLASS": "Mine", "STATE_ALPHA": "CA", "COUNTY_NAME": "Placer", "PRIM_LAT_DEC": 39.0362864, "PRIM_LONG_DEC": -120.9254954, "ELEV_IN_FT": 2169 }, "geometry": { "type": "Point", "coordinates": [ -120.9254954, 39.0362864 ] } },
{ "type": "Feature", "properties": { "FEATURE_ID": 225385, "FEATURE_NAME": "Hoffman Pits", "FEATURE_CLASS": "Mine", "STATE_ALPHA": "CA", "COUNTY_NAME": "Placer", "PRIM_LAT_DEC": 39.0251776, "PRIM_LONG_DEC": -120.7504855, "ELEV_IN_FT": 3113 }, "geometry": { "type": "Point", "coordinates": [ -120.7504855, 39.0251776 ] } },
{ "type": "Feature", "properties": { "FEATURE_ID": 225422, "FEATURE_NAME": "Hogan Mine", "FEATURE_CLASS": "Mine", "STATE_ALPHA": "CA", "COUNTY_NAME": "Siskiyou", "PRIM_LAT_DEC": 41.3604165, "PRIM_LONG_DEC": -123.0139257, "ELEV_IN_FT": 4354 }, "geometry": { "type": "Point", "coordinates": [ -123.0139257, 41.3604165 ] } },
{ "type": "Feature", "properties": { "FEATURE_ID": 225446, "FEATURE_NAME": "Holiday Mine", "FEATURE_CLASS": "Mine", "STATE_ALPHA": "CA", "COUNTY_NAME": "Del Norte", "PRIM_LAT_DEC": 41.9473346, "PRIM_LONG_DEC": -123.8684069, "ELEV_IN_FT": 2592 }, "geometry": { "type": "Point", "coordinates": [ -123.8684069, 41.9473346 ] } },
{ "type": "Feature", "properties": { "FEATURE_ID": 225449, "FEATURE_NAME": "Holland Mine", "FEATURE_CLASS": "Mine", "STATE_ALPHA": "CA", "COUNTY_NAME": "Calaveras", "PRIM_LAT_DEC": 38.1754749, "PRIM_LONG_DEC": -120.6790981, "ELEV_IN_FT": 1007 }, "geometry": { "type": "Point", "coordinates": [ -120.6790981, 38.1754749 ] } },
{ "type": "Feature", "properties": { "FEATURE_ID": 225501, "FEATURE_NAME": "Homestake Mine", "FEATURE_CLASS": "Mine", "STATE_ALPHA": "CA", "COUNTY_NAME": "Siskiyou", "PRIM_LAT_DEC": 41.3598608, "PRIM_LONG_DEC": -123.0169814, "ELEV_IN_FT": 4383 }, "geometry": { "type": "Point", "coordinates": [ -123.0169814, 41.3598608 ] } },
{ "type": "Feature", "properties": { "FEATURE_ID": 225517, "FEATURE_NAME": "Honey Tunnel", "FEATURE_CLASS": "Mine", "STATE_ALPHA": "CA", "COUNTY_NAME": "Placer", "PRIM_LAT_DEC": 39.1465681, "PRIM_LONG_DEC": -120.6515968, "ELEV_IN_FT": 4340 }, "geometry": { "type": "Point", "coordinates": [ -120.6515968, 39.1465681 ] } },
{ "type": "Feature", "properties": { "FEATURE_ID": 225524, "FEATURE_NAME": "Honor Camp Number Seven", "FEATURE_CLASS": "Mine", "STATE_ALPHA": "CA", "COUNTY_NAME": "Placer", "PRIM_LAT_DEC": 38.9898969, "PRIM_LONG_DEC": -121.0724461, "ELEV_IN_FT": 1581 }, "geometry": { "type": "Point", "coordinates": [ -121.0724461, 38.9898969 ] } },
{ "type": "Feature", "properties": { "FEATURE_ID": 225586, "FEATURE_NAME": "Hornby Mine", "FEATURE_CLASS": "Mine", "STATE_ALPHA": "CA", "COUNTY_NAME": "Placer", "PRIM_LAT_DEC": 39.0801789, "PRIM_LONG_DEC": -120.6807627, "ELEV_IN_FT": 3688 }, "geometry": { "type": "Point", "coordinates": [ -120.6807627, 39.0801789 ] } },
{ "type": "Feature", "properties": { "FEATURE_ID": 225756, "FEATURE_NAME": "Humbug Mine", "FEATURE_CLASS": "Mine", "STATE_ALPHA": "CA", "COUNTY_NAME": "El Dorado", "PRIM_LAT_DEC": 38.6396279, "PRIM_LONG_DEC": -120.5418701, "ELEV_IN_FT": 3704 }, "geometry": { "type": "Point", "coordinates": [ -120.5418701, 38.6396279 ] } },
{ "type": "Feature", "properties": { "FEATURE_ID": 225825, "FEATURE_NAME": "Idaho-Maryland Mine", "FEATURE_CLASS": "Mine", "STATE_ALPHA": "CA", "COUNTY_NAME": "Nevada", "PRIM_LAT_DEC": 39.2232275, "PRIM_LONG_DEC": -121.0382819, "ELEV_IN_FT": 2539 }, "geometry": { "type": "Point", "coordinates": [ -121.0382819, 39.2232275 ] } },
{ "type": "Feature", "properties": { "FEATURE_ID": 225829, "FEATURE_NAME": "If I Can Mine", "FEATURE_CLASS": "Mine", "STATE_ALPHA": "CA", "COUNTY_NAME": "Tuolumne", "PRIM_LAT_DEC": 37.908815, "PRIM_LONG_DEC": -120.561034, "ELEV_IN_FT": 705 }, "geometry": { "type": "Point", "coordinates": [ -120.561034, 37.908815 ] } },
{ "type": "Feature", "properties": { "FEATURE_ID": 225836, "FEATURE_NAME": "Imperial Mine", "FEATURE_CLASS": "Mine", "STATE_ALPHA": "CA", "COUNTY_NAME": "Placer", "PRIM_LAT_DEC": 39.0182336, "PRIM_LONG_DEC": -120.7249291, "ELEV_IN_FT": 1381 }, "geometry": { "type": "Point", "coordinates": [ -120.7249291, 39.0182336 ] } },
{ "type": "Feature", "properties": { "FEATURE_ID": 225884, "FEATURE_NAME": "Indian Hill Mine", "FEATURE_CLASS": "Mine", "STATE_ALPHA": "CA", "COUNTY_NAME": "Sierra", "PRIM_LAT_DEC": 39.5060032, "PRIM_LONG_DEC": -121.0099545, "ELEV_IN_FT": 3222 }, "geometry": { "type": "Point", "coordinates": [ -121.0099545, 39.5060032 ] } },
{ "type": "Feature", "properties": { "FEATURE_ID": 225978, "FEATURE_NAME": "Iron Dyke Mine", "FEATURE_CLASS": "Mine", "STATE_ALPHA": "CA", "COUNTY_NAME": "Plumas", "PRIM_LAT_DEC": 40.0643365, "PRIM_LONG_DEC": -120.8441197, "ELEV_IN_FT": 3993 }, "geometry": { "type": "Point", "coordinates": [ -120.8441197, 40.0643365 ] } },
{ "type": "Feature", "properties": { "FEATURE_ID": 225979, "FEATURE_NAME": "Iron Dyke Mine", "FEATURE_CLASS": "Mine", "STATE_ALPHA": "CA", "COUNTY_NAME": "Siskiyou", "PRIM_LAT_DEC": 41.9890238, "PRIM_LONG_DEC": -122.7525323, "ELEV_IN_FT": 4232 }, "geometry": { "type": "Point", "coordinates": [ -122.7525323, 41.9890238 ] } },
{ "type": "Feature", "properties": { "FEATURE_ID": 226020, "FEATURE_NAME": "Italian Mine", "FEATURE_CLASS": "Mine", "STATE_ALPHA": "CA", "COUNTY_NAME": "Amador", "PRIM_LAT_DEC": 38.443799, "PRIM_LONG_DEC": -120.8335476, "ELEV_IN_FT": 997 }, "geometry": { "type": "Point", "coordinates": [ -120.8335476, 38.443799 ] } },
{ "type": "Feature", "properties": { "FEATURE_ID": 226043, "FEATURE_NAME": "Jack Thorn Mine", "FEATURE_CLASS": "Mine", "STATE_ALPHA": "CA", "COUNTY_NAME": "Fresno", "PRIM_LAT_DEC": 36.9363386, "PRIM_LONG_DEC": -119.4404076, "ELEV_IN_FT": 1644 }, "geometry": { "type": "Point", "coordinates": [ -119.4404076, 36.9363386 ] } },
{ "type": "Feature", "properties": { "FEATURE_ID": 226066, "FEATURE_NAME": "Jackrabbit Mine", "FEATURE_CLASS": "Mine", "STATE_ALPHA": "CA", "COUNTY_NAME": "Inyo", "PRIM_LAT_DEC": 37.3546527, "PRIM_LONG_DEC": -118.5281711, "ELEV_IN_FT": 5233 }, "geometry": { "type": "Point", "coordinates": [ -118.5281711, 37.3546527 ] } },
{ "type": "Feature", "properties": { "FEATURE_ID": 226149, "FEATURE_NAME": "Jarvis Tunnel", "FEATURE_CLASS": "Mine", "STATE_ALPHA": "CA", "COUNTY_NAME": "Placer", "PRIM_LAT_DEC": 39.1451784, "PRIM_LONG_DEC": -120.7035429, "ELEV_IN_FT": 3957 }, "geometry": { "type": "Point", "coordinates": [ -120.7035429, 39.1451784 ] } },
{ "type": "Feature", "properties": { "FEATURE_ID": 226160, "FEATURE_NAME": "Jeff Davis Mine", "FEATURE_CLASS": "Mine", "STATE_ALPHA": "CA", "COUNTY_NAME": "Calaveras", "PRIM_LAT_DEC": 38.3432471, "PRIM_LONG_DEC": -120.5435379, "ELEV_IN_FT": 2756 }, "geometry": { "type": "Point", "coordinates": [ -120.5435379, 38.3432471 ] } },
{ "type": "Feature", "properties": { "FEATURE_ID": 226218, "FEATURE_NAME": "Jesse Belle Shaft", "FEATURE_CLASS": "Mine", "STATE_ALPHA": "CA", "COUNTY_NAME": "Madera", "PRIM_LAT_DEC": 37.1405021, "PRIM_LONG_DEC": -119.9484942, "ELEV_IN_FT": 584 }, "geometry": { "type": "Point", "coordinates": [ -119.9484942, 37.1405021 ] } },
{ "type": "Feature", "properties": { "FEATURE_ID": 226228, "FEATURE_NAME": "Jewess Mine", "FEATURE_CLASS": "Mine", "STATE_ALPHA": "CA", "COUNTY_NAME": "Lake", "PRIM_LAT_DEC": 38.7357394, "PRIM_LONG_DEC": -122.6874884, "ELEV_IN_FT": 2329 }, "geometry": { "type": "Point", "coordinates": [ -122.6874884, 38.7357394 ] } },
{ "type": "Feature", "properties": { "FEATURE_ID": 226235, "FEATURE_NAME": "Jigger Bill Brothers Mine", "FEATURE_CLASS": "Mine", "STATE_ALPHA": "CA", "COUNTY_NAME": "Tuolumne", "PRIM_LAT_DEC": 37.9293697, "PRIM_LONG_DEC": -120.2087993, "ELEV_IN_FT": 2533 }, "geometry": { "type": "Point", "coordinates": [ -120.2087993, 37.9293697 ] } },
{ "type": "Feature", "properties": { "FEATURE_ID": 226312, "FEATURE_NAME": "Johnson Mine", "FEATURE_CLASS": "Mine", "STATE_ALPHA": "CA", "COUNTY_NAME": "El Dorado", "PRIM_LAT_DEC": 38.5707399, "PRIM_LONG_DEC": -120.6740973, "ELEV_IN_FT": 2589 }, "geometry": { "type": "Point", "coordinates": [ -120.6740973, 38.5707399 ] } },
{ "type": "Feature", "properties": { "FEATURE_ID": 226313, "FEATURE_NAME": "Johnson Mine", "FEATURE_CLASS": "Mine", "STATE_ALPHA": "CA", "COUNTY_NAME": "Plumas", "PRIM_LAT_DEC": 39.8893379, "PRIM_LONG_DEC": -120.8227278, "ELEV_IN_FT": 4757 }, "geometry": { "type": "Point", "coordinates": [ -120.8227278, 39.8893379 ] } },
{ "type": "Feature", "properties": { "FEATURE_ID": 226368, "FEATURE_NAME": "Judge Mine", "FEATURE_CLASS": "Mine", "STATE_ALPHA": "CA", "COUNTY_NAME": "Siskiyou", "PRIM_LAT_DEC": 41.2970811, "PRIM_LONG_DEC": -123.12282, "ELEV_IN_FT": 2320 }, "geometry": { "type": "Point", "coordinates": [ -123.12282, 41.2970811 ] } },
{ "type": "Feature", "properties": { "FEATURE_ID": 226373, "FEATURE_NAME": "Jumbo Mine", "FEATURE_CLASS": "Mine", "STATE_ALPHA": "CA", "COUNTY_NAME": "Siskiyou", "PRIM_LAT_DEC": 41.2793047, "PRIM_LONG_DEC": -123.07754, "ELEV_IN_FT": 3150 }, "geometry": { "type": "Point", "coordinates": [ -123.07754, 41.2793047 ] } },
{ "type": "Feature", "properties": { "FEATURE_ID": 226380, "FEATURE_NAME": "Junction Mine", "FEATURE_CLASS": "Mine", "STATE_ALPHA": "CA", "COUNTY_NAME": "Tuolumne", "PRIM_LAT_DEC": 37.9710359, "PRIM_LONG_DEC": -120.2785233, "ELEV_IN_FT": 2664 }, "geometry": { "type": "Point", "coordinates": [ -120.2785233, 37.9710359 ] } },
{ "type": "Feature", "properties": { "FEATURE_ID": 226413, "FEATURE_NAME": "Kalamath Mine", "FEATURE_CLASS": "Mine", "STATE_ALPHA": "CA", "COUNTY_NAME": "Siskiyou", "PRIM_LAT_DEC": 41.2534705, "PRIM_LONG_DEC": -123.1236532, "ELEV_IN_FT": 4619 }, "geometry": { "type": "Point", "coordinates": [ -123.1236532, 41.2534705 ] } },
{ "type": "Feature", "properties": { "FEATURE_ID": 226442, "FEATURE_NAME": "Keane Wonder Mill", "FEATURE_CLASS": "Mine", "STATE_ALPHA": "CA", "COUNTY_NAME": "Inyo", "PRIM_LAT_DEC": 36.669948, "PRIM_LONG_DEC": -116.9092242, "ELEV_IN_FT": 1535 }, "geometry": { "type": "Point", "coordinates": [ -116.9092242, 36.669948 ] } },
{ "type": "Feature", "properties": { "FEATURE_ID": 226443, "FEATURE_NAME": "Keane Wonder Mine", "FEATURE_CLASS": "Mine", "STATE_ALPHA": "CA", "COUNTY_NAME": "Inyo", "PRIM_LAT_DEC": 36.6816147, "PRIM_LONG_DEC": -116.9000577, "ELEV_IN_FT": 2726 }, "geometry": { "type": "Point", "coordinates": [ -116.9000577, 36.6816147 ] } },
{ "type": "Feature", "properties": { "FEATURE_ID": 226448, "FEATURE_NAME": "Keeler Mine", "FEATURE_CLASS": "Mine", "STATE_ALPHA": "CA", "COUNTY_NAME": "Inyo", "PRIM_LAT_DEC": 36.6243828, "PRIM_LONG_DEC": -117.4872891, "ELEV_IN_FT": 5295 }, "geometry": { "type": "Point", "coordinates": [ -117.4872891, 36.6243828 ] } },
{ "type": "Feature", "properties": { "FEATURE_ID": 226455, "FEATURE_NAME": "Kellet Mine", "FEATURE_CLASS": "Mine", "STATE_ALPHA": "CA", "COUNTY_NAME": "Napa", "PRIM_LAT_DEC": 38.5585191, "PRIM_LONG_DEC": -122.5599825, "ELEV_IN_FT": 600 }, "geometry": { "type": "Point", "coordinates": [ -122.5599825, 38.5585191 ] } },
{ "type": "Feature", "properties": { "FEATURE_ID": 226493, "FEATURE_NAME": "Kenna Mine", "FEATURE_CLASS": "Mine", "STATE_ALPHA": "CA", "COUNTY_NAME": "El Dorado", "PRIM_LAT_DEC": 38.9818448, "PRIM_LONG_DEC": -120.7313179, "ELEV_IN_FT": 3487 }, "geometry": { "type": "Point", "coordinates": [ -120.7313179, 38.9818448 ] } },
{ "type": "Feature", "properties": { "FEATURE_ID": 226502, "FEATURE_NAME": "Kennedy Mine", "FEATURE_CLASS": "Mine", "STATE_ALPHA": "CA", "COUNTY_NAME": "Amador", "PRIM_LAT_DEC": 38.3668572, "PRIM_LONG_DEC": -120.780213, "ELEV_IN_FT": 1365 },